{
  "UTK": {
    "lat": 11.222219,
    "lon": 169.851429,
    "city": "Utirik Island",
    "country": "MH",
    "name": "Utirik Airport"
  },
  "OCA": {
    "lat": 25.325399398804,
    "lon": -80.274803161621,
    "city": "Key Largo",
    "country": "US",
    "name": "Ocean Reef Club Airport"
  },
  "CSE": {
    "lat": 38.851918,
    "lon": -106.928341,
    "city": "Crested Butte",
    "country": "US",
    "name": "Crested Butte Airpark"
  },
  "CUS": {
    "lat": 31.823898,
    "lon": -107.629924,
    "city": "Columbus",
    "country": "US",
    "name": "Columbus Airport"
  },
  "JCY": {
    "lat": 30.251801,
    "lon": -98.622498,
    "city": "Stonewall",
    "country": "US",
    "name": "LBJ Ranch Airport"
  },
  "WLR": {
    "lat": 55.601299,
    "lon": -131.636993,
    "city": "Loring",
    "country": "US",
    "name": "Loring Seaplane Base"
  },
  "NUP": {
    "lat": 60.905591,
    "lon": -162.440454,
    "city": "Nunapitchuk",
    "country": "US",
    "name": "Nunapitchuk Airport"
  },
  "PTC": {
    "lat": 55.803,
    "lon": -133.597,
    "city": "Port Alice",
    "country": "US",
    "name": "Port Alice Seaplane Base"
  },
  "ICY": {
    "lat": 59.966269,
    "lon": -141.660118,
    "city": "Icy Bay",
    "country": "US",
    "name": "Icy Bay Airport"
  },
  "PPV": {
    "lat": 56.3288,
    "lon": -133.610001,
    "city": "Port Protection",
    "country": "US",
    "name": "Port Protection Seaplane Base"
  },
  "KKK": {
    "lat": 64.4166256967,
    "lon": -156.820392609,
    "city": "Kalakaket Creek",
    "country": "US",
    "name": "Kalakaket Creek AS Airport"
  },
  "MHS": {
    "lat": 41.263199,
    "lon": -122.272003,
    "city": "Dunsmuir",
    "country": "US",
    "name": "Dunsmuir Muni-Mott Airport"
  },
  "NIR": {
    "lat": 28.362444,
    "lon": -97.661917,
    "city": "Beeville",
    "country": "US",
    "name": "Chase Field Industrial Airport"
  },
  "GCT": {
    "lat": 36.257984,
    "lon": -113.231063,
    "city": "Littlefield",
    "country": "US",
    "name": "Grand Canyon Bar Ten Airstrip"
  },
  "ELW": {
    "lat": 60.893818,
    "lon": -146.704038,
    "city": "Ellamar",
    "country": "US",
    "name": "Ellamar Seaplane Base"
  },
  "LVD": {
    "lat": 61.3591003418,
    "lon": -155.440002441,
    "city": "Lime Village",
    "country": "US",
    "name": "Lime Village Airport"
  },
  "HGZ": {
    "lat": 66.176133,
    "lon": -155.684816,
    "city": "Hogatza",
    "country": "US",
    "name": "Hog River Airport"
  },
  "OTN": {
    "lat": 38.851782,
    "lon": -87.49987,
    "city": "Oaktown",
    "country": "US",
    "name": "Ed-Air Airport"
  },
  "TLF": {
    "lat": 63.393902,
    "lon": -153.268997,
    "city": "Telida",
    "country": "US",
    "name": "Telida Airport"
  },
  "BZT": {
    "lat": 28.982200622559,
    "lon": -95.579696655273,
    "city": "Brazoria",
    "country": "US",
    "name": "Eagle Air Park"
  },
  "HBH": {
    "lat": 57.412201,
    "lon": -133.43848,
    "city": "Entrance Island",
    "country": "US",
    "name": "Entrance Island Seaplane Base"
  },
  "FAK": {
    "lat": 57.5321998596,
    "lon": -135.212997437,
    "city": "False Island",
    "country": "US",
    "name": "False Island Seaplane Base"
  },
  "BYW": {
    "lat": 48.579162,
    "lon": -122.823844,
    "city": "Blakely Island",
    "country": "US",
    "name": "Blakely Island Airport"
  },
  "DRF": {
    "lat": 60.588901519800004,
    "lon": -152.162002563,
    "city": "Kenai",
    "country": "US",
    "name": "Drift River Airport"
  },
  "BDF": {
    "lat": 41.230899810800004,
    "lon": -89.61569976810001,
    "city": "Bradford",
    "country": "US",
    "name": "Rinkenberger Restricted Landing Area"
  },
  "TEH": {
    "lat": 63.124618,
    "lon": -142.518005,
    "city": "Tetlin",
    "country": "US",
    "name": "Tetlin Airport"
  },
  "VRS": {
    "lat": 38.427799224854,
    "lon": -92.875198364258,
    "city": "Versailles",
    "country": "US",
    "name": "Roy Otten Memorial Airfield"
  },
  "GDH": {
    "lat": 59.7470016479,
    "lon": -158.875,
    "city": "Golden Horn Lodge",
    "country": "US",
    "name": "Golden Horn Lodge Seaplane Base"
  },
  "ATT": {
    "lat": 60.866699,
    "lon": -162.272996,
    "city": "Atmautluak",
    "country": "US",
    "name": "Atmautluak Airport"
  },
  "LIV": {
    "lat": 65.467,
    "lon": -148.6534,
    "city": "Livengood",
    "country": "US",
    "name": "Livengood Camp Airport"
  },
  "PDB": {
    "lat": 59.796925,
    "lon": -154.129994,
    "city": "Pedro Bay",
    "country": "US",
    "name": "Pedro Bay Airport"
  },
  "KOZ": {
    "lat": 57.942094,
    "lon": -152.464314,
    "city": "Ouzinkie",
    "country": "US",
    "name": "Ouzinkie Airport"
  },
  "TNK": {
    "lat": 60.569638,
    "lon": -165.246649,
    "city": "Tununak",
    "country": "US",
    "name": "Tununak Airport"
  },
  "WHD": {
    "lat": 55.903324,
    "lon": -130.009975,
    "city": "Hyder",
    "country": "US",
    "name": "Hyder Seaplane Base"
  },
  "MNT": {
    "lat": 65.147991,
    "lon": -149.368658,
    "city": "Minto",
    "country": "US",
    "name": "Minto Al Wright Airport"
  },
  "TKI": {
    "lat": 55.937099,
    "lon": -133.326996,
    "city": "Tokeen",
    "country": "US",
    "name": "Tokeen Seaplane Base"
  },
  "WKK": {
    "lat": 59.2826004028,
    "lon": -158.617996216,
    "city": "Aleknagik",
    "country": "US",
    "name": "Aleknagik / New Airport"
  },
  "WFB": {
    "lat": 55.349899,
    "lon": -131.677002,
    "city": "Ketchikan",
    "country": "US",
    "name": "Ketchikan Harbor Seaplane Base"
  },
  "RFK": {
    "lat": 32.953543,
    "lon": -90.845144,
    "city": "Rolling Fork",
    "country": "US",
    "name": "Rollang Field"
  },
  "NNK": {
    "lat": 58.735633,
    "lon": -157.02216,
    "city": "Naknek",
    "country": "US",
    "name": "Naknek Airport"
  },
  "BKF": {
    "lat": 58.554798,
    "lon": -155.776993,
    "city": "Katmai National Park",
    "country": "US",
    "name": "Lake Brooks Seaplane Base"
  },
  "BCS": {
    "lat": 29.866078,
    "lon": -90.021608,
    "city": "Belle Chasse",
    "country": "US",
    "name": "Southern Seaplane Airport"
  },
  "MMN": {
    "lat": 42.460298,
    "lon": -71.519031,
    "city": "Stow",
    "country": "US",
    "name": "Minute Man Air Field"
  },
  "SPQ": {
    "lat": 33.7491989136,
    "lon": -118.275001526,
    "city": "San Pedro",
    "country": "US",
    "name": "Catalina Air-Sea Terminal Heliport"
  },
  "TSS": {
    "lat": 40.742372,
    "lon": -73.972074,
    "city": "New York",
    "country": "US",
    "name": "East 34th Street Heliport"
  },
  "NYS": {
    "lat": 40.735061,
    "lon": -73.972814,
    "city": "New York",
    "country": "US",
    "name": "New York Skyports Inc Seaplane Base"
  },
  "BWL": {
    "lat": 36.7958984375,
    "lon": -97.3170013428,
    "city": "Blackwell",
    "country": "US",
    "name": "Earl Henry Airport"
  },
  "WYB": {
    "lat": 55.916302,
    "lon": -131.800995,
    "city": "Yes Bay",
    "country": "US",
    "name": "Yes Bay Lodge Seaplane Base"
  },
  "CWS": {
    "lat": 48.490046,
    "lon": -122.831612,
    "city": "Center Island",
    "country": "US",
    "name": "Center Island Airport"
  },
  "TEK": {
    "lat": 60.871449,
    "lon": -146.690297,
    "city": "Tatitlek",
    "country": "US",
    "name": "Tatitlek Airport"
  },
  "DUF": {
    "lat": 36.252744,
    "lon": -75.785256,
    "city": "Corolla",
    "country": "US",
    "name": "Pine Island Airport"
  },
  "SSW": {
    "lat": 48.673379,
    "lon": -123.175439,
    "city": "Friday Harbor",
    "country": "US",
    "name": "Stuart Island Airpark"
  },
  "FOB": {
    "lat": 39.472445,
    "lon": -123.795319,
    "city": "Fort Bragg",
    "country": "US",
    "name": "Fort Bragg Airport"
  },
  "PUL": {
    "lat": 47.734001159668,
    "lon": -122.64700317383,
    "city": "Poulsbo",
    "country": "US",
    "name": "Port of Poulsbo Marina Moorage Seaplane Base"
  },
  "CCD": {
    "lat": 34.060798645,
    "lon": -118.417999268,
    "city": "Los Angeles",
    "country": "US",
    "name": "Century City Heliport"
  },
  "WMK": {
    "lat": 55.739601,
    "lon": -132.255005,
    "city": "Meyers Chuck",
    "country": "US",
    "name": "Meyers Chuck Seaplane Base"
  },
  "AXB": {
    "lat": 44.312002,
    "lon": -75.90034,
    "city": "Alexandria Bay",
    "country": "US",
    "name": "Maxson Airfield"
  },
  "REE": {
    "lat": 33.590301513672,
    "lon": -102.03700256348,
    "city": "Lubbock",
    "country": "US",
    "name": "Reese Airpark"
  },
  "WDN": {
    "lat": 48.71141,
    "lon": -123.018208,
    "city": "Eastsound",
    "country": "US",
    "name": "Waldron Airstrip"
  },
  "WWP": {
    "lat": 56.116299,
    "lon": -133.121994,
    "city": "Whale Pass",
    "country": "US",
    "name": "Whale Pass Seaplane Float Harbor Facility"
  },
  "CHU": {
    "lat": 61.579102,
    "lon": -159.216003,
    "city": "Chuathbaluk",
    "country": "US",
    "name": "Chuathbaluk Airport"
  },
  "UGS": {
    "lat": 57.523476,
    "lon": -157.396344,
    "city": "Ugashik",
    "country": "US",
    "name": "Ugashik Airport"
  },
  "JID": {
    "lat": 34.020472,
    "lon": -117.927396,
    "city": "City of Industry",
    "country": "US",
    "name": "Recreation and Conference Center Heliport"
  },
  "PSQ": {
    "lat": 39.859001159668,
    "lon": -75.299598693848,
    "city": "Essington",
    "country": "US",
    "name": "Philadelphia Seaplane Base"
  },
  "KLL": {
    "lat": 59.12606,
    "lon": -156.860906,
    "city": "Levelock",
    "country": "US",
    "name": "Levelock Airport"
  },
  "SGW": {
    "lat": 56.886299,
    "lon": -134.158005,
    "city": "Saginaw Bay",
    "country": "US",
    "name": "Saginaw Seaplane Base"
  },
  "WTL": {
    "lat": 60.351243,
    "lon": -162.654476,
    "city": "Tuntutuliak",
    "country": "US",
    "name": "Tuntutuliak Airport"
  },
  "TWA": {
    "lat": 59.074713,
    "lon": -160.274992,
    "city": "Twin Hills",
    "country": "US",
    "name": "Twin Hills Airport"
  },
  "KCQ": {
    "lat": 56.255001,
    "lon": -158.774994,
    "city": "Chignik Lake",
    "country": "US",
    "name": "Chignik Lake Airport"
  },
  "AAD": {
    "lat": 6.095802,
    "lon": 46.6375,
    "city": "Adado",
    "country": "SO",
    "name": "Adado Airport"
  },
  "ABP": {
    "lat": -6.06462,
    "lon": 141.095173,
    "city": "Atkamba Mission",
    "country": "PG",
    "name": "Atkamba Airport"
  },
  "ACM": {
    "lat": -2.143713,
    "lon": -71.75935,
    "city": "Arica",
    "country": "CO",
    "name": "Arica Airport"
  },
  "ADV": {
    "lat": 11.4023,
    "lon": 26.1186,
    "city": "El Daein",
    "country": "SD",
    "name": "El Daein Airport"
  },
  "AEE": {
    "lat": 10.053611,
    "lon": 32.959444,
    "city": "Adar",
    "country": "SS",
    "name": "Adareil Airport"
  },
  "AEQ": {
    "lat": 43.908407,
    "lon": 120.15099,
    "city": "Chifeng",
    "country": "CN",
    "name": "Ar Horqin Airport"
  },
  "AFK": {
    "lat": 7.284,
    "lon": 81.644,
    "city": "Ampara",
    "country": "LK",
    "name": "Kondavattavana Tank Seaplane Base"
  },
  "AFT": {
    "lat": -9.191389,
    "lon": 160.948611,
    "city": "Bila",
    "country": "SB",
    "name": "Afutara Aerodrome"
  },
  "RNA": {
    "lat": -9.86054358262,
    "lon": 161.979546547,
    "city": "Arona",
    "country": "SB",
    "name": "Ulawa Airport"
  },
  "ATD": {
    "lat": -8.87333,
    "lon": 161.011002,
    "city": "Atoifi",
    "country": "SB",
    "name": "Uru Harbour Airport"
  },
  "VEV": {
    "lat": -7.912779808044434,
    "lon": 156.70599365234375,
    "city": "Barakoma",
    "country": "SB",
    "name": "Barakoma Airport"
  },
  "BPF": {
    "lat": -8.56202777778,
    "lon": 158.119305556,
    "city": "Batuna Mission Station",
    "country": "SB",
    "name": "Batuna Aerodrome"
  },
  "GEF": {
    "lat": -7.575829982757568,
    "lon": 156.5970001220703,
    "city": "Liangia",
    "country": "SB",
    "name": "Geva Airport"
  },
  "AGG": {
    "lat": -4.057077,
    "lon": 144.073841,
    "city": "Angoram",
    "country": "PG",
    "name": "Angoram Airport"
  },
  "AKS": {
    "lat": -8.70257,
    "lon": 160.682007,
    "city": "Auki",
    "country": "SB",
    "name": "Gwaunaru'u Airport"
  },
  "BNY": {
    "lat": -11.302222222200001,
    "lon": 159.798333333,
    "city": "Anua",
    "country": "SB",
    "name": "Bellona/Anua Airport"
  },
  "CHY": {
    "lat": -6.711944,
    "lon": 156.396111,
    "city": "Choiseul Bay",
    "country": "SB",
    "name": "Choiseul Bay Airport"
  },
  "BAS": {
    "lat": -6.990745,
    "lon": 155.886656,
    "city": "Ballalae",
    "country": "SB",
    "name": "Ballalae Airport"
  },
  "FRE": {
    "lat": -8.1075,
    "lon": 159.576996,
    "city": "Fera Island",
    "country": "SB",
    "name": "Fera/Maringe Airport"
  },
  "HIR": {
    "lat": -9.428,
    "lon": 160.054993,
    "city": "Honiara",
    "country": "SB",
    "name": "Honiara International Airport"
  },
  "MBU": {
    "lat": -9.7475,
    "lon": 159.839005,
    "city": "Mbambanakira",
    "country": "SB",
    "name": "Babanakira Airport"
  },
  "AVU": {
    "lat": -9.868333,
    "lon": 160.410556,
    "city": "Avu Avu",
    "country": "SB",
    "name": "Avu Avu Airport"
  },
  "IRA": {
    "lat": -10.449700355500001,
    "lon": 161.897994995,
    "city": "Kirakira",
    "country": "SB",
    "name": "Ngorangora Airport"
  },
  "SCZ": {
    "lat": -10.7203,
    "lon": 165.794998,
    "city": "Santa Cruz/Graciosa Bay/Luova",
    "country": "SB",
    "name": "Santa Cruz/Graciosa Bay/Luova Airport"
  },
  "MUA": {
    "lat": -8.32797,
    "lon": 157.263,
    "city": "Munda",
    "country": "SB",
    "name": "Munda Airport"
  },
  "GZO": {
    "lat": -8.09778022766,
    "lon": 156.863998413,
    "city": "Gizo",
    "country": "SB",
    "name": "Nusatupe Airport"
  },
  "MNY": {
    "lat": -7.41694,
    "lon": 155.565002,
    "city": "Stirling Island",
    "country": "SB",
    "name": "Mono Airport"
  },
  "PRS": {
    "lat": -9.641670227050781,
    "lon": 161.4250030517578,
    "city": "Parasi",
    "country": "SB",
    "name": "Parasi Airport"
  },
  "RNL": {
    "lat": -11.55,
    "lon": 160.062778,
    "city": "Rennell Island",
    "country": "SB",
    "name": "Rennell/Tingoa Airport"
  },
  "EGM": {
    "lat": -8.57889,
    "lon": 157.876007,
    "city": "Sege",
    "country": "SB",
    "name": "Sege Airport"
  },
  "NNB": {
    "lat": -10.847994,
    "lon": 162.454108,
    "city": "Santa Ana Island",
    "country": "SB",
    "name": "Santa Ana Airport"
  },
  "RUS": {
    "lat": -9.86167,
    "lon": 160.824997,
    "city": "Marau",
    "country": "SB",
    "name": "Marau Airport"
  },
  "VAO": {
    "lat": -7.58556,
    "lon": 158.731003,
    "city": "Suavanao",
    "country": "SB",
    "name": "Suavanao Airport"
  },
  "XYA": {
    "lat": -9.092816,
    "lon": 159.21841,
    "city": "Yandina",
    "country": "SB",
    "name": "Yandina Airport"
  },
  "AGK": {
    "lat": -6.396388888890001,
    "lon": 143.853611111,
    "city": "Kagua",
    "country": "PG",
    "name": "Kagua Airport"
  },
  "KGE": {
    "lat": -7.3305,
    "lon": 157.585,
    "city": "Kagau Island",
    "country": "SB",
    "name": "Kaghau Airport"
  },
  "KUE": {
    "lat": -8.0262,
    "lon": 156.94783,
    "city": "Kolombangara Island",
    "country": "SB",
    "name": "Kukudu Airport"
  },
  "KWS": {
    "lat": -8.360508,
    "lon": 160.775127,
    "city": "Kwailabesi",
    "country": "SB",
    "name": "Kwailabesi Airport"
  },
  "LLM": {
    "lat": -10.296828,
    "lon": 166.327322,
    "city": "Lomlom",
    "country": "SB",
    "name": "Lomlom Airport"
  },
  "NAZ": {
    "lat": -10.6758,
    "lon": 162.2049,
    "city": "Star Harbor",
    "country": "SB",
    "name": "Nana Airport"
  },
  "MHM": {
    "lat": -8.325008,
    "lon": 160.80051,
    "city": "Manaoba",
    "country": "SB",
    "name": "Manaoba Airport"
  },
  "GTA": {
    "lat": -8.738358,
    "lon": 158.202836,
    "city": "Gatokae",
    "country": "SB",
    "name": "Gatokae Aerodrome"
  },
  "RIN": {
    "lat": -8.12639045715332,
    "lon": 157.14300537109375,
    "city": "Ringi Cove",
    "country": "SB",
    "name": "Ringi Cove Airport"
  },
  "RBV": {
    "lat": -8.168060302734375,
    "lon": 157.64300537109375,
    "city": "Ramata",
    "country": "SB",
    "name": "Ramata Airport"
  },
  "TLG": {
    "lat": -9.108,
    "lon": 160.149166667,
    "city": "Tulaghi Island",
    "country": "SB",
    "name": "Tulaghi Heliport"
  },
  "AHY": {
    "lat": -20.015833333299998,
    "lon": 45.535,
    "city": "Ambatolahy",
    "country": "MG",
    "name": "Ambatolhy Airport"
  },
  "AIC": {
    "lat": 7.279422,
    "lon": 168.8257,
    "city": "Bigatyelang Island",
    "country": "MH",
    "name": "Ailinglaplap Airok Airport"
  },
  "CEX": {
    "lat": 65.0518035889,
    "lon": -146.04699707,
    "city": "Chena Hot Springs",
    "country": "US",
    "name": "Chena Hot Springs Airport"
  },
  "SOL": {
    "lat": 64.5605,
    "lon": -164.4457,
    "city": "Solomon",
    "country": "US",
    "name": "Solomon State Field"
  },
  "HED": {
    "lat": 55.802346,
    "lon": -160.901346,
    "city": "Herendeen Bay",
    "country": "US",
    "name": "Herendeen Bay Airport"
  },
  "TWE": {
    "lat": 65.6792984009,
    "lon": -164.798995972,
    "city": "Taylor",
    "country": "US",
    "name": "Taylor Airport"
  },
  "KTH": {
    "lat": 59.9631996155,
    "lon": -158.477005005,
    "city": "Tikchik",
    "country": "US",
    "name": "Tikchik Lodge Seaplane Base"
  },
  "NKI": {
    "lat": 55.849602,
    "lon": -133.227994,
    "city": "Tuxekan Island",
    "country": "US",
    "name": "Naukati Bay Seaplane Base"
  },
  "CDL": {
    "lat": 65.907699585,
    "lon": -161.925994873,
    "city": "Candle",
    "country": "US",
    "name": "Candle 2 Airport"
  },
  "AOS": {
    "lat": 57.4715003967,
    "lon": -153.815002441,
    "city": "Amook Bay",
    "country": "US",
    "name": "Amook Bay Seaplane Base"
  },
  "BSW": {
    "lat": 60.4230995178,
    "lon": -146.145996094,
    "city": "Boswell Bay",
    "country": "US",
    "name": "Boswell Bay Airport"
  },
  "AKM": {
    "lat": 10.8902777778,
    "lon": 19.8172222222,
    "city": "ZaKouma",
    "country": "TD",
    "name": "Zakuoma Airport"
  },
  "ALZ": {
    "lat": 56.897294,
    "lon": -154.249692,
    "city": "Lazy Bay",
    "country": "US",
    "name": "Alitak Seaplane Base"
  },
  "YUK": {
    "lat": 39.202272,
    "lon": 46.455204,
    "city": "Kapan",
    "country": "AM",
    "name": "Syunik Airport"
  },
  "AME": {
    "lat": -15.6102777778,
    "lon": 37.6813888889,
    "city": "Alto Molocue",
    "country": "MZ",
    "name": "Alto Molocue Airport"
  },
  "AMY": {
    "lat": -17.686667,
    "lon": 45.623889,
    "city": "",
    "country": "MG",
    "name": "Ambatomainty Airport"
  },
  "INU": {
    "lat": -0.547458,
    "lon": 166.919006,
    "city": "Yaren District",
    "country": "NR",
    "name": "Nauru International Airport"
  },
  "ANZ": {
    "lat": -25.0325,
    "lon": 132.2748,
    "city": "Angus Downs Station",
    "country": "AU",
    "name": "Angus Downs Airport"
  },
  "CTV": {
    "lat": -9.431359,
    "lon": 20.311557,
    "city": "Saurimo",
    "country": "AO",
    "name": "Catoca Airport"
  },
  "ANL": {
    "lat": -11.4723,
    "lon": 16.710899,
    "city": "Andulo",
    "country": "AO",
    "name": "Andulo Airport"
  },
  "CNZ": {
    "lat": -13.7106,
    "lon": 19.861099,
    "city": "Cangamba",
    "country": "AO",
    "name": "Cangamba Airport"
  },
  "DRC": {
    "lat": -17.981924,
    "lon": 20.768061,
    "city": "Dirico",
    "country": "AO",
    "name": "Dirico Airport"
  },
  "NDF": {
    "lat": -9.280378,
    "lon": 14.982432,
    "city": "N'dalatando",
    "country": "AO",
    "name": "N'dalatando Airport"
  },
  "AOB": {
    "lat": -4.90416666667,
    "lon": 144.635833333,
    "city": "",
    "country": "PG",
    "name": "Annanberg Airport"
  },
  "AOD": {
    "lat": 11.4773,
    "lon": 19.2874,
    "city": "Abou-Deïa",
    "country": "TD",
    "name": "Abou-Deïa Airport"
  },
  "APP": {
    "lat": -8.979167,
    "lon": 148.103611,
    "city": "",
    "country": "PG",
    "name": "Asapa Airport"
  },
  "AQY": {
    "lat": 60.968774,
    "lon": -149.119792,
    "city": "Girdwood",
    "country": "US",
    "name": "Girdwood-Alyeska Airport"
  },
  "QRF": {
    "lat": -35.145811,
    "lon": -60.480294,
    "city": "Bragado",
    "country": "AR",
    "name": "Bragado Airport"
  },
  "CVI": {
    "lat": -46.37428,
    "lon": -67.59409,
    "city": "Caleta Olivia",
    "country": "AR",
    "name": "Caleta Olivia Airport"
  },
  "CNT": {
    "lat": -27.2164,
    "lon": -61.2103,
    "city": "Charata",
    "country": "AR",
    "name": "Charata Airport"
  },
  "VGS": {
    "lat": -34.995728,
    "lon": -62.999725,
    "city": "General Villegas",
    "country": "AR",
    "name": "General Villegas Airport"
  },
  "LMD": {
    "lat": -40.817699,
    "lon": -68.074699,
    "city": "Los Menucos",
    "country": "AR",
    "name": "Los Menucos Airport"
  },
  "VCF": {
    "lat": -40.700001,
    "lon": -66.150002,
    "city": "Valcheta",
    "country": "AR",
    "name": "Valcheta Airport"
  },
  "CPG": {
    "lat": -40.7781,
    "lon": -62.9803,
    "city": "Carmen de Patagones",
    "country": "AR",
    "name": "Carmen de Patagones Airport"
  },
  "ARP": {
    "lat": -9.88333333333,
    "lon": 149.483333333,
    "city": "",
    "country": "PG",
    "name": "Aragip Airport"
  },
  "ASZ": {
    "lat": -6.009722222220001,
    "lon": 150.368611111,
    "city": "",
    "country": "PG",
    "name": "Asirim Airport"
  },
  "WFR": {
    "lat": -71.517,
    "lon": 8.8,
    "city": "",
    "country": "AQ",
    "name": "Wolf's Fang Runway"
  },
  "LYT": {
    "lat": -24.1129,
    "lon": 152.7156,
    "city": "Lady Elliot Island",
    "country": "AU",
    "name": "Lady Elliot Island Airstrip"
  },
  "GYZ": {
    "lat": -28.034548,
    "lon": 123.81506,
    "city": "Cosmo Newbery",
    "country": "AU",
    "name": "Gruyere Airport"
  },
  "AGW": {
    "lat": -12.1456,
    "lon": 142.149369,
    "city": "Agnew",
    "country": "AU",
    "name": "Agnew Airport"
  },
  "AYD": {
    "lat": -19.2908,
    "lon": 136.078995,
    "city": "Alroy Downs",
    "country": "AU",
    "name": "Alroy Downs Airport"
  },
  "BYX": {
    "lat": -13.1981,
    "lon": 136.227005,
    "city": "Baniyala",
    "country": "AU",
    "name": "Baniyala Airport"
  },
  "COB": {
    "lat": -15.548299789428711,
    "lon": 130.96200561523438,
    "city": "Coolibah",
    "country": "AU",
    "name": "Coolibah Airport"
  },
  "CRJ": {
    "lat": -31.894399642944336,
    "lon": 132.29600524902344,
    "city": "Coorabie",
    "country": "AU",
    "name": "Coorabie Airport"
  },
  "CRY": {
    "lat": -15.501899719238281,
    "lon": 128.53399658203125,
    "city": "Carlton Hill",
    "country": "AU",
    "name": "Carlton Hill Airport"
  },
  "CSD": {
    "lat": -17.947999954223633,
    "lon": 135.91600036621094,
    "city": "Cresswell Downs",
    "country": "AU",
    "name": "Cresswell Downs Airport"
  },
  "DYM": {
    "lat": -23.761699676513672,
    "lon": 141.14500427246094,
    "city": "Diamantina Lakes",
    "country": "AU",
    "name": "Diamantina Lakes Airport"
  },
  "HIS": {
    "lat": -20.059999465942383,
    "lon": 148.88099670410156,
    "city": "Hayman Island",
    "country": "AU",
    "name": "Hayman Island Resort Seaplane Base"
  },
  "HLV": {
    "lat": -15.685799598693848,
    "lon": 145.21499633789062,
    "city": "Helenvale",
    "country": "AU",
    "name": "Helenvale Airport"
  },
  "KBD": {
    "lat": -17.39780044555664,
    "lon": 124.3550033569336,
    "city": "Kimberley Downs",
    "country": "AU",
    "name": "Kimberley Downs Airport"
  },
  "KGR": {
    "lat": -25.8428,
    "lon": 133.292007,
    "city": "Ghan",
    "country": "AU",
    "name": "Kulgera Airport"
  },
  "PEP": {
    "lat": -14.1442,
    "lon": 130.091003,
    "city": "Peppimenarti",
    "country": "AU",
    "name": "Peppimenarti Airport"
  },
  "RDA": {
    "lat": -18.95330047607422,
    "lon": 135.2010040283203,
    "city": "Rockhampton Downs",
    "country": "AU",
    "name": "Rockhampton Downs Airport"
  },
  "SSK": {
    "lat": -19.166400909423828,
    "lon": 128.1739959716797,
    "city": "Sturt Creek",
    "country": "AU",
    "name": "Sturt Creek Airport"
  },
  "SWB": {
    "lat": -21.510299682617188,
    "lon": 119.36199951171875,
    "city": "Shaw River",
    "country": "AU",
    "name": "Shaw River Airport"
  },
  "TWP": {
    "lat": -17.363300323486328,
    "lon": 143.75,
    "city": "Torwood",
    "country": "AU",
    "name": "Torwood Airport"
  },
  "ZVG": {
    "lat": -17.7869,
    "lon": 127.669998,
    "city": "Springvale",
    "country": "AU",
    "name": "Springvale Airport"
  },
  "AWR": {
    "lat": -4.122278,
    "lon": 144.853292,
    "city": "Awar",
    "country": "PG",
    "name": "Awar Airport (unusable)"
  },
  "AXF": {
    "lat": 38.748317,
    "lon": 105.58416,
    "city": "Bayanhot",
    "country": "CN",
    "name": "Alxa Left Banner Bayanhot Airport"
  },
  "AXO": {
    "lat": -8.244832,
    "lon": 124.219108,
    "city": "Kabir",
    "country": "ID",
    "name": "Pantar Kabir Airport"
  },
  "AMF": {
    "lat": -4.10111111111,
    "lon": 141.67,
    "city": "",
    "country": "PG",
    "name": "Ama Airport"
  },
  "UAE": {
    "lat": -6.229978,
    "lon": 144.664181,
    "city": "Aue",
    "country": "PG",
    "name": "Mount Aue Airport"
  },
  "AFR": {
    "lat": -9.13867,
    "lon": 148.390701,
    "city": "Afore",
    "country": "PG",
    "name": "Afore Airstrip"
  },
  "AUP": {
    "lat": -9.927715,
    "lon": 149.389951,
    "city": "Agaun",
    "country": "PG",
    "name": "Agaun Airport"
  },
  "ATP": {
    "lat": -3.143611,
    "lon": 142.346806,
    "city": "Aitape",
    "country": "PG",
    "name": "Aitape Airport"
  },
  "AIH": {
    "lat": -7.342777777779999,
    "lon": 141.2675,
    "city": "Aiambak",
    "country": "PG",
    "name": "Aiambak Airport"
  },
  "AMU": {
    "lat": -3.586,
    "lon": 141.214333333,
    "city": "Amanab",
    "country": "PG",
    "name": "Amanab Airport"
  },
  "ADC": {
    "lat": -7.13722222222,
    "lon": 145.744722222,
    "city": "Andekombe",
    "country": "PG",
    "name": "Andakombe Airport"
  },
  "AIE": {
    "lat": -5.145699978,
    "lon": 144.7307003,
    "city": "Aiome",
    "country": "PG",
    "name": "Aiome Airport"
  },
  "KPM": {
    "lat": -5.38166666667,
    "lon": 143.924722222,
    "city": "",
    "country": "PG",
    "name": "Kompiam Airport"
  },
  "AUJ": {
    "lat": -4.21566666667,
    "lon": 142.823166667,
    "city": "Ambunti",
    "country": "PG",
    "name": "Ambunti Airport"
  },
  "AWB": {
    "lat": -8.013414,
    "lon": 142.752099,
    "city": "Awaba",
    "country": "PG",
    "name": "Awaba Airport"
  },
  "AEK": {
    "lat": -7.350805,
    "lon": 146.193994,
    "city": "Aseki",
    "country": "PG",
    "name": "Aseki Airport"
  },
  "AYU": {
    "lat": -6.33805555556,
    "lon": 145.904166667,
    "city": "Aiyura Valley",
    "country": "PG",
    "name": "Aiyura Airport"
  },
  "VMU": {
    "lat": -7.496955,
    "lon": 144.821756,
    "city": "Baimuru",
    "country": "PG",
    "name": "Baimuru Airport"
  },
  "BCP": {
    "lat": -5.863611111110001,
    "lon": 146.4925,
    "city": "Bambu",
    "country": "PG",
    "name": "Bambu Airport"
  },
  "BNM": {
    "lat": -9.107777777779999,
    "lon": 147.666722222,
    "city": "Bodinumu",
    "country": "PG",
    "name": "Bodinumu Airport"
  },
  "BMZ": {
    "lat": -7.8485,
    "lon": 143.2433,
    "city": "Bamu",
    "country": "PG",
    "name": "Bamu Airport"
  },
  "BDZ": {
    "lat": -6.34722222222,
    "lon": 146.942222222,
    "city": "",
    "country": "PG",
    "name": "Baindoung Airport"
  },
  "BSP": {
    "lat": -8.85805555556,
    "lon": 141.259444444,
    "city": "Bensbach",
    "country": "PG",
    "name": "Bensbach Airport"
  },
  "BWP": {
    "lat": -3.0216666666700003,
    "lon": 141.165277778,
    "city": "Bewani",
    "country": "PG",
    "name": "Bewani Airport"
  },
  "BUA": {
    "lat": -5.422299,
    "lon": 154.672698,
    "city": "Buka Island",
    "country": "PG",
    "name": "Buka Airport"
  },
  "BAA": {
    "lat": -5.3305602073700005,
    "lon": 151.007995605,
    "city": "Bialla, Matalilu, Ewase",
    "country": "PG",
    "name": "Bialla Airport"
  },
  "OPU": {
    "lat": -8.05000019073,
    "lon": 142.932998657,
    "city": "Balimo",
    "country": "PG",
    "name": "Balimo Airport"
  },
  "BMH": {
    "lat": -6.37316666667,
    "lon": 144.637,
    "city": "Bomai",
    "country": "PG",
    "name": "Bomai Airport"
  },
  "BPD": {
    "lat": -7.743611111110001,
    "lon": 147.020555556,
    "city": "Bapi",
    "country": "PG",
    "name": "Bapi Airstrip"
  },
  "BPK": {
    "lat": -5.526389,
    "lon": 141.744583,
    "city": "Biangabip",
    "country": "PG",
    "name": "Biangabip Airport"
  },
  "BRP": {
    "lat": -7.6693,
    "lon": 146.7594,
    "city": "Biaru",
    "country": "PG",
    "name": "Biaru Airport"
  },
  "BUL": {
    "lat": -7.216286671410001,
    "lon": 146.649541855,
    "city": "Bulolo",
    "country": "PG",
    "name": "Bulolo Airport"
  },
  "XBN": {
    "lat": -9.6425,
    "lon": 149.303889,
    "city": "Biniguni",
    "country": "PG",
    "name": "Biniguni Airport"
  },
  "CVB": {
    "lat": -4.80662,
    "lon": 144.714996,
    "city": "Chungribu",
    "country": "PG",
    "name": "Chungribu Airport"
  },
  "CGC": {
    "lat": -5.455231,
    "lon": 148.422289,
    "city": "Cape Gloucester",
    "country": "PG",
    "name": "Cape Gloucester Airport"
  },
  "CMU": {
    "lat": -6.024290084838867,
    "lon": 144.9709930419922,
    "city": "Kundiawa",
    "country": "PG",
    "name": "Chimbu Airport"
  },
  "SQT": {
    "lat": -10.5627777778,
    "lon": 150.690694444,
    "city": "Samarai Island",
    "country": "PG",
    "name": "China Strait Airstrip"
  },
  "DBP": {
    "lat": -6.30861111111,
    "lon": 141.905555556,
    "city": "Debepare",
    "country": "PG",
    "name": "Debepare Airport"
  },
  "DER": {
    "lat": -6.14472222222,
    "lon": 147.107222222,
    "city": "Derim",
    "country": "PG",
    "name": "Derim Airport"
  },
  "BNT": {
    "lat": -5.742222222220001,
    "lon": 145.2275,
    "city": "Bundi",
    "country": "PG",
    "name": "Bundi Airport"
  },
  "MDM": {
    "lat": -4.6204,
    "lon": 143.4516,
    "city": "Munduku",
    "country": "PG",
    "name": "Munduku Airport"
  },
  "KPF": {
    "lat": -8.5336,
    "lon": 142.5049,
    "city": "Kondobol",
    "country": "PG",
    "name": "Kondobol Airport"
  },
  "DNU": {
    "lat": -6.1546,
    "lon": 146.6772,
    "city": "Dinangat",
    "country": "PG",
    "name": "Dinangat Airport"
  },
  "DOI": {
    "lat": -10.7009,
    "lon": 150.7218,
    "city": "Castori Islets",
    "country": "PG",
    "name": "Doini Airport"
  },
  "DOO": {
    "lat": -9.461855,
    "lon": 147.920907,
    "city": "Dorobisoro",
    "country": "PG",
    "name": "Dorobisoro Airport"
  },
  "DAU": {
    "lat": -9.08676,
    "lon": 143.207993,
    "city": "Daru",
    "country": "PG",
    "name": "Daru Airport"
  },
  "KRU": {
    "lat": -8.271612,
    "lon": 147.071899,
    "city": "Gunim",
    "country": "PG",
    "name": "Kerau Airport"
  },
  "EMS": {
    "lat": -9.447,
    "lon": 148.7628,
    "city": "Embessa",
    "country": "PG",
    "name": "Embessa Airport"
  },
  "XYR": {
    "lat": -3.883986,
    "lon": 141.792234,
    "city": "Yellow River Mission",
    "country": "PG",
    "name": "Edwaki Airport"
  },
  "EMI": {
    "lat": -1.653949991,
    "lon": 149.9757667,
    "city": "Emirau Island",
    "country": "PG",
    "name": "Emirau Airport"
  },
  "EFG": {
    "lat": -9.15380555556,
    "lon": 147.659805556,
    "city": "Efogi",
    "country": "PG",
    "name": "Efogi Airport"
  },
  "MHY": {
    "lat": -8.71411111111,
    "lon": 141.644444444,
    "city": "Morehead",
    "country": "PG",
    "name": "Morehead Airport"
  },
  "EPT": {
    "lat": -5.0412,
    "lon": 141.6779,
    "city": "Eliptamin",
    "country": "PG",
    "name": "Eliptamin Airport"
  },
  "EGA": {
    "lat": -6.9179,
    "lon": 146.1053,
    "city": "Engati",
    "country": "PG",
    "name": "Engati Airstrip"
  },
  "EMO": {
    "lat": -9.1234,
    "lon": 148.0415,
    "city": "Emo Mission",
    "country": "PG",
    "name": "Emo River Airstrip"
  },
  "ERU": {
    "lat": -8.2538,
    "lon": 146.9747,
    "city": "Erume",
    "country": "PG",
    "name": "Erume Airport"
  },
  "MFZ": {
    "lat": -6.1364,
    "lon": 149.1183,
    "city": "Demgulu",
    "country": "PG",
    "name": "Meselia Airport"
  },
  "BOT": {
    "lat": -7.237257,
    "lon": 141.1063222,
    "city": "Bosset",
    "country": "PG",
    "name": "Bosset Airport"
  },
  "ERE": {
    "lat": -6.60646315446,
    "lon": 143.900213242,
    "city": "Erave",
    "country": "PG",
    "name": "Erave Airport"
  },
  "SWE": {
    "lat": -6.284181,
    "lon": 147.582371,
    "city": "Siwea",
    "country": "PG",
    "name": "Siwea Airport"
  },
  "FNE": {
    "lat": -8.54927777778,
    "lon": 147.085833333,
    "city": "Fane Mission",
    "country": "PG",
    "name": "Fane Airport"
  },
  "FRQ": {
    "lat": -5.208,
    "lon": 141.6988,
    "city": "Feramin",
    "country": "PG",
    "name": "Feramin Airport"
  },
  "FIN": {
    "lat": -6.621750109,
    "lon": 147.85405,
    "city": "Buki",
    "country": "PG",
    "name": "Finschhafen Airport"
  },
  "FAQ": {
    "lat": -4.610468,
    "lon": 141.960138,
    "city": "Frieda River",
    "country": "PG",
    "name": "Frieda River Airport"
  },
  "FUM": {
    "lat": -6.3933,
    "lon": 142.4408,
    "city": "Fuma",
    "country": "PG",
    "name": "Fuma Airport"
  },
  "GKA": {
    "lat": -6.081689834590001,
    "lon": 145.391998291,
    "city": "Goronka",
    "country": "PG",
    "name": "Goroka Airport"
  },
  "GEW": {
    "lat": -9.2263,
    "lon": 148.4949,
    "city": "Gewoia",
    "country": "PG",
    "name": "Gewoia Airport"
  },
  "GUG": {
    "lat": -8.1286,
    "lon": 146.8722,
    "city": "Guari",
    "country": "PG",
    "name": "Guari Airport"
  },
  "GRL": {
    "lat": -7.980713,
    "lon": 147.213461,
    "city": "Au",
    "country": "PG",
    "name": "Garasa Airport"
  },
  "GAR": {
    "lat": -7.875625,
    "lon": 147.141266,
    "city": "Garaina",
    "country": "PG",
    "name": "Garaina Airport"
  },
  "GAZ": {
    "lat": -9.225918,
    "lon": 152.944352,
    "city": "Woodlark (Muyua) Island",
    "country": "PG",
    "name": "Guasopa Airport"
  },
  "GOE": {
    "lat": -5.527716614,
    "lon": 151.5733333,
    "city": "Gonaili",
    "country": "PG",
    "name": "Gonaili Airport"
  },
  "GUR": {
    "lat": -10.3114995956,
    "lon": 150.333999634,
    "city": "Gurney",
    "country": "PG",
    "name": "Gurney Airport"
  },
  "GAP": {
    "lat": -6.053196,
    "lon": 145.959047,
    "city": "Gusap",
    "country": "PG",
    "name": "Gusap Airport"
  },
  "PNP": {
    "lat": -8.80453968048,
    "lon": 148.309005737,
    "city": "Popondetta",
    "country": "PG",
    "name": "Girua Airport"
  },
  "GBC": {
    "lat": -6.1028,
    "lon": 141.7393,
    "city": "Gasuke",
    "country": "PG",
    "name": "Gasuke Airport"
  },
  "GMI": {
    "lat": -6.27111005783,
    "lon": 150.330993652,
    "city": "Gasmata Island",
    "country": "PG",
    "name": "Gasmata Island Airport"
  },
  "AKG": {
    "lat": -3.560504,
    "lon": 142.217307,
    "city": "Anguganak",
    "country": "PG",
    "name": "Anguganak Airport"
  },
  "GVI": {
    "lat": -3.9022428989400004,
    "lon": 141.170516968,
    "city": "Green River",
    "country": "PG",
    "name": "Green River Airport"
  },
  "GOC": {
    "lat": -9.0021,
    "lon": 148.2364,
    "city": "Gora",
    "country": "PG",
    "name": "Gora Airstrip"
  },
  "HBD": {
    "lat": -6.32,
    "lon": 142.4893,
    "city": "Habi",
    "country": "PG",
    "name": "Habi Airport"
  },
  "HNI": {
    "lat": -7.4223,
    "lon": 146.4276,
    "city": "Heiweni",
    "country": "PG",
    "name": "Heiweni Airport"
  },
  "HYF": {
    "lat": -3.69838,
    "lon": 143.057902,
    "city": "Bainyik",
    "country": "PG",
    "name": "Hayfields Airport"
  },
  "HNN": {
    "lat": -6.2457,
    "lon": 142.1771,
    "city": "Honinabi",
    "country": "PG",
    "name": "Honinabi Airport"
  },
  "HKN": {
    "lat": -5.463846,
    "lon": 150.407327,
    "city": "Kimbe",
    "country": "PG",
    "name": "Hoskins Airport"
  },
  "HIT": {
    "lat": -6.9406,
    "lon": 143.059,
    "city": "Haivaro",
    "country": "PG",
    "name": "Haivaro Airport"
  },
  "HWA": {
    "lat": -7.392994,
    "lon": 146.003487,
    "city": "Hawabango",
    "country": "PG",
    "name": "Hawabango Airport"
  },
  "IIS": {
    "lat": -4.49972009659,
    "lon": 154.225997925,
    "city": "Nissan Island",
    "country": "PG",
    "name": "Nissan Island Airport"
  },
  "IDN": {
    "lat": -6.22663,
    "lon": 147.244,
    "city": "Indagen",
    "country": "PG",
    "name": "Indagen Airport"
  },
  "IMN": {
    "lat": -6.7524,
    "lon": 146.1072,
    "city": "Imane",
    "country": "PG",
    "name": "Imane Airport"
  },
  "KGM": {
    "lat": -5.671,
    "lon": 141.03,
    "city": "Kungim",
    "country": "PG",
    "name": "Kungim Airport"
  },
  "IMD": {
    "lat": -3.328,
    "lon": 141.1573,
    "city": "Imonda",
    "country": "PG",
    "name": "Imonda Airport"
  },
  "KIE": {
    "lat": -6.305417,
    "lon": 155.728139,
    "city": "Kieta",
    "country": "PG",
    "name": "Aropa Airport"
  },
  "IAL": {
    "lat": -6.2782,
    "lon": 143.9944,
    "city": "Ialibu",
    "country": "PG",
    "name": "Ialibu Airport"
  },
  "WSA": {
    "lat": -8.2836,
    "lon": 142.8697,
    "city": "Wasua",
    "country": "PG",
    "name": "Wasua Airport"
  },
  "WIU": {
    "lat": -4.689522,
    "lon": 149.440112,
    "city": "Garove Island",
    "country": "PG",
    "name": "Witu Airport"
  },
  "MPX": {
    "lat": -4.903055555560001,
    "lon": 141.620833333,
    "city": "Miyanmin",
    "country": "PG",
    "name": "Miyanmin Airport"
  },
  "KGH": {
    "lat": -8.5289,
    "lon": 147.4603,
    "city": "Yongai",
    "country": "PG",
    "name": "Yongai Airport"
  },
  "JOP": {
    "lat": -4.74708333333,
    "lon": 145.007083333,
    "city": "Josephstaal",
    "country": "PG",
    "name": "Josephstaal Airport"
  },
  "LSA": {
    "lat": -8.505820274353027,
    "lon": 151.08099365234375,
    "city": "Losuia",
    "country": "PG",
    "name": "Losuia Airport"
  },
  "KBM": {
    "lat": -6.15547222222,
    "lon": 147.191472222,
    "city": "",
    "country": "PG",
    "name": "Kabwum"
  },
  "KDR": {
    "lat": -6.19217,
    "lon": 149.54783,
    "city": "Kandrian",
    "country": "PG",
    "name": "Kandrian Airport"
  },
  "KMF": {
    "lat": -7.64925,
    "lon": 145.956944444,
    "city": "Hoieti",
    "country": "PG",
    "name": "Kamina Airport"
  },
  "KPA": {
    "lat": -5.3883,
    "lon": 142.4977,
    "city": "Kopiago",
    "country": "PG",
    "name": "Kopiago Airport"
  },
  "KAQ": {
    "lat": -8.150694444440001,
    "lon": 146.834,
    "city": "Kamulai Mission",
    "country": "PG",
    "name": "Kamulai Airport"
  },
  "UNG": {
    "lat": -6.1257100105285645,
    "lon": 141.28199768066406,
    "city": "Kiunga",
    "country": "PG",
    "name": "Kiunga Airport"
  },
  "KNE": {
    "lat": -5.2903,
    "lon": 144.7072,
    "city": "Kanainj",
    "country": "PG",
    "name": "Kanainj Airport"
  },
  "KRI": {
    "lat": -7.42438,
    "lon": 144.250076,
    "city": "Kikori",
    "country": "PG",
    "name": "Kikori Airport"
  },
  "KMA": {
    "lat": -7.96361017227,
    "lon": 145.770996094,
    "city": "Kerema",
    "country": "PG",
    "name": "Kerema Airport"
  },
  "KKD": {
    "lat": -8.884679,
    "lon": 147.730957,
    "city": "Kokoda",
    "country": "PG",
    "name": "Kokoda Airport"
  },
  "KGW": {
    "lat": -9.135916666670001,
    "lon": 147.669444444,
    "city": "Kagi",
    "country": "PG",
    "name": "Kagi Airport"
  },
  "KRX": {
    "lat": -4.557,
    "lon": 145.9404,
    "city": "Kar Kar Island",
    "country": "PG",
    "name": "Kar Kar Airport"
  },
  "KZF": {
    "lat": -7.50025,
    "lon": 146.033833333,
    "city": "Kaintiba",
    "country": "PG",
    "name": "Kaintiba Airport"
  },
  "KUQ": {
    "lat": -7.135083,
    "lon": 143.276111,
    "city": "Kuri",
    "country": "PG",
    "name": "Kuri Airport"
  },
  "KVG": {
    "lat": -2.57940006256,
    "lon": 150.807998657,
    "city": "Kavieng",
    "country": "PG",
    "name": "Kavieng Airport"
  },
  "KWO": {
    "lat": -7.977006912229999,
    "lon": 142.823577881,
    "city": "Kawito",
    "country": "PG",
    "name": "Kawito Airport"
  },
  "LNV": {
    "lat": -3.04361009598,
    "lon": 152.628997803,
    "city": "Londolovit",
    "country": "PG",
    "name": "Londolovit Airport"
  },
  "LAB": {
    "lat": -5.7204,
    "lon": 148.0566,
    "city": "Lab Lab Mission",
    "country": "PG",
    "name": "Lab Lab Airport"
  },
  "KEG": {
    "lat": -5.83277777778,
    "lon": 145.097222222,
    "city": "Denglagu Mission",
    "country": "PG",
    "name": "Keglsugl Airport"
  },
  "KII": {
    "lat": -9.006528,
    "lon": 142.698056,
    "city": "Kibuli",
    "country": "PG",
    "name": "Kibuli Airstrip"
  },
  "LGN": {
    "lat": -5.5319444444400006,
    "lon": 149.734166667,
    "city": "Linga Linga",
    "country": "PG",
    "name": "Linga Linga Airport"
  },
  "LNM": {
    "lat": -7.22313888889,
    "lon": 146.227083333,
    "city": "",
    "country": "PG",
    "name": "Langimar Airport"
  },
  "LWI": {
    "lat": -6.3344,
    "lon": 146.6458,
    "city": "Lowai",
    "country": "PG",
    "name": "Lowai Airport"
  },
  "LPN": {
    "lat": -6.3917,
    "lon": 146.3434,
    "city": "Leron Plains",
    "country": "PG",
    "name": "Leron Plains Airport"
  },
  "LNG": {
    "lat": -8.2799,
    "lon": 146.2765,
    "city": "Lese",
    "country": "PG",
    "name": "Lese Airport"
  },
  "LNC": {
    "lat": -6.384611111110001,
    "lon": 147.368638889,
    "city": "",
    "country": "PG",
    "name": "Lengbati Airport"
  },
  "LMI": {
    "lat": -3.47683951134,
    "lon": 142.041292191,
    "city": "Lumi",
    "country": "PG",
    "name": "Lumi Airport"
  },
  "LSJ": {
    "lat": -5.3604,
    "lon": 147.0177,
    "city": "Long Island",
    "country": "PG",
    "name": "Long Island Airport"
  },
  "AYM": {
    "lat": 24.467,
    "lon": 54.6103,
    "city": "Abu Dhabi",
    "country": "AE",
    "name": "Yas Island Seaplane Base"
  },
  "MRM": {
    "lat": -9.1908,
    "lon": 147.6219,
    "city": "Manari",
    "country": "PG",
    "name": "Manari Airport"
  },
  "OBM": {
    "lat": -7.74,
    "lon": 147.59,
    "city": "Morobe",
    "country": "PG",
    "name": "Morobe Airport"
  },
  "MYX": {
    "lat": -7.21166666667,
    "lon": 146.019361111,
    "city": "Menyamya",
    "country": "PG",
    "name": "Menyamya Airport"
  },
  "MAG": {
    "lat": -5.20707988739,
    "lon": 145.789001465,
    "city": "Madang",
    "country": "PG",
    "name": "Madang Airport"
  },
  "HGU": {
    "lat": -5.828212,
    "lon": 144.299412,
    "city": "Mount Hagen",
    "country": "PG",
    "name": "Mount Hagen Kagamuga Airport"
  },
  "MXK": {
    "lat": -6.47166666667,
    "lon": 147.441138889,
    "city": "Mindik",
    "country": "PG",
    "name": "Mindik Airport"
  },
  "MPG": {
    "lat": -6.532222222220001,
    "lon": 147.651166667,
    "city": "Makini",
    "country": "PG",
    "name": "Makini Airport"
  },
  "GUV": {
    "lat": -6.280859,
    "lon": 142.420775,
    "city": "Mougulu",
    "country": "PG",
    "name": "Mougulu Airport"
  },
  "MDU": {
    "lat": -6.14774,
    "lon": 143.656998,
    "city": "Mendi",
    "country": "PG",
    "name": "Mendi Airport"
  },
  "MAS": {
    "lat": -2.06189,
    "lon": 147.423996,
    "city": "Manus Island",
    "country": "PG",
    "name": "Momote Airport"
  },
  "MLQ": {
    "lat": -8.07138888889,
    "lon": 146.155472222,
    "city": "Malalaua",
    "country": "PG",
    "name": "Malalaua Airport"
  },
  "MQO": {
    "lat": -8.70916666667,
    "lon": 142.649722222,
    "city": "Malam",
    "country": "PG",
    "name": "Malam Airport"
  },
  "MXH": {
    "lat": -6.36332988739,
    "lon": 143.238006592,
    "city": "Moro",
    "country": "PG",
    "name": "Moro Airport"
  },
  "MIS": {
    "lat": -10.689200401299999,
    "lon": 152.837997437,
    "city": "Misima Island",
    "country": "PG",
    "name": "Misima Island Airport"
  },
  "MKN": {
    "lat": -4.02343055556,
    "lon": 153.657277778,
    "city": "Babase Island",
    "country": "PG",
    "name": "Malekolon Airport"
  },
  "MWG": {
    "lat": -6.9736,
    "lon": 145.8849,
    "city": "Marawaka",
    "country": "PG",
    "name": "Marawaka Airport"
  },
  "MPU": {
    "lat": -2.81138888889,
    "lon": 151.991111111,
    "city": "Tatau Island",
    "country": "PG",
    "name": "Mapua(Mabua) Airport"
  },
  "NKN": {
    "lat": -5.837,
    "lon": 146.4533,
    "city": "Gwarawon",
    "country": "PG",
    "name": "Nankina Airport"
  },
  "KEX": {
    "lat": -7.538888888890001,
    "lon": 145.905,
    "city": "Kanabea",
    "country": "PG",
    "name": "Kanabea Airport"
  },
  "NDN": {
    "lat": -9.14355555556,
    "lon": 147.68425,
    "city": "Nadunumu",
    "country": "PG",
    "name": "Nadunumu Airport"
  },
  "AUI": {
    "lat": -1.46055555556,
    "lon": 143.064722222,
    "city": "Aua Island",
    "country": "PG",
    "name": "Aua Island Airport"
  },
  "GBF": {
    "lat": -6.567778,
    "lon": 144.703058,
    "city": "Negarbo",
    "country": "PG",
    "name": "Negarbo(Negabo) Airport"
  },
  "MFO": {
    "lat": -5.577778,
    "lon": 151.792333,
    "city": "Manguna",
    "country": "PG",
    "name": "Manguna Airport"
  },
  "NUG": {
    "lat": -3.4075,
    "lon": 154.7383,
    "city": "Nuguria Island",
    "country": "PG",
    "name": "Nuguria Airstrip"
  },
  "NDI": {
    "lat": -9.47375,
    "lon": 148.329416667,
    "city": "Namudi",
    "country": "PG",
    "name": "Namudi Airport"
  },
  "KSB": {
    "lat": -6.3819,
    "lon": 146.9859,
    "city": "Kasonombe",
    "country": "PG",
    "name": "Kasonombe Airport"
  },
  "KDP": {
    "lat": -5.84061111111,
    "lon": 143.507222222,
    "city": "Kandep",
    "country": "PG",
    "name": "Kandep Airport"
  },
  "NMN": {
    "lat": -6.32183,
    "lon": 145.070667,
    "city": "Namane",
    "country": "PG",
    "name": "Nomane Airport"
  },
  "BXZ": {
    "lat": -5.7243,
    "lon": 147.8667,
    "city": "Bunsil - Umboi Island",
    "country": "PG",
    "name": "Bunsil Airport"
  },
  "UKU": {
    "lat": -3.676651,
    "lon": 142.484334,
    "city": "Nuku",
    "country": "PG",
    "name": "Nuku Airport"
  },
  "ATN": {
    "lat": -3.6695,
    "lon": 152.438,
    "city": "Namatanai",
    "country": "PG",
    "name": "Namatanai Airport"
  },
  "NBA": {
    "lat": -6.2412,
    "lon": 145.2424,
    "city": "Nambaiyufa",
    "country": "PG",
    "name": "Nambaiyufa Airport"
  },
  "LAE": {
    "lat": -6.569803,
    "lon": 146.725977,
    "city": "Lae",
    "country": "PG",
    "name": "Nadzab Airport"
  },
  "OBX": {
    "lat": -7.590622421369999,
    "lon": 141.324262619,
    "city": "Obo",
    "country": "PG",
    "name": "Obo Airport"
  },
  "KGB": {
    "lat": -6.2239,
    "lon": 147.2152,
    "city": "Konge",
    "country": "PG",
    "name": "Konge Airport"
  },
  "OKV": {
    "lat": -5.55666666667,
    "lon": 141.032777778,
    "city": "Okao",
    "country": "PG",
    "name": "Okao Airport"
  },
  "OGE": {
    "lat": -6.46675,
    "lon": 147.364166667,
    "city": "",
    "country": "PG",
    "name": "Ogeranang Airport"
  },
  "OKP": {
    "lat": -5.2261,
    "lon": 142.2259,
    "city": "Oksapmin",
    "country": "PG",
    "name": "Oksapmin Airport"
  },
  "HOC": {
    "lat": -7.3984,
    "lon": 145.8827,
    "city": "Komako",
    "country": "PG",
    "name": "Komako Airport"
  },
  "KQL": {
    "lat": -5.73116666667,
    "lon": 144.846,
    "city": "Kol",
    "country": "PG",
    "name": "Kol Airport"
  },
  "OSE": {
    "lat": -7.82777777778,
    "lon": 147.080638889,
    "city": "Omora",
    "country": "PG",
    "name": "Omora Airport"
  },
  "KOM": {
    "lat": -6.0682,
    "lon": 142.8598,
    "city": "Komo",
    "country": "PG",
    "name": "Komo-Manda Airport"
  },
  "KSP": {
    "lat": -8.450716,
    "lon": 147.209195,
    "city": "Kosipe Mission",
    "country": "PG",
    "name": "Kosipe Airport"
  },
  "KCJ": {
    "lat": -7.2714,
    "lon": 143.5952,
    "city": "Komaio",
    "country": "PG",
    "name": "Komaio Airport"
  },
  "OLQ": {
    "lat": -5.3897222222200005,
    "lon": 141.515277778,
    "city": "Olsobip",
    "country": "PG",
    "name": "Olsobip Airport"
  },
  "KDE": {
    "lat": -5.6952,
    "lon": 142.7441,
    "city": "Koroba",
    "country": "PG",
    "name": "Koroba Airport"
  },
  "OPB": {
    "lat": -4.794727,
    "lon": 151.696195,
    "city": "Maitanakunai",
    "country": "PG",
    "name": "Open Bay Airport"
  },
  "PLE": {
    "lat": -5.372407,
    "lon": 142.975774,
    "city": "Paiela",
    "country": "PG",
    "name": "Paiela Airport"
  },
  "PGB": {
    "lat": -7.0226,
    "lon": 141.5605,
    "city": "Pangoa",
    "country": "PG",
    "name": "Pangoa Airport"
  },
  "PDI": {
    "lat": -6.445138888890001,
    "lon": 147.515833333,
    "city": "Pindiu",
    "country": "PG",
    "name": "Pindiu Airport"
  },
  "APR": {
    "lat": -4.67666666667,
    "lon": 142.540138889,
    "city": "April River",
    "country": "PG",
    "name": "April River Airport"
  },
  "PGN": {
    "lat": -6.386,
    "lon": 144.1084,
    "city": "Pangia",
    "country": "PG",
    "name": "Pangia Airport"
  },
  "PMP": {
    "lat": -6.49916666667,
    "lon": 143.510277778,
    "city": "Pimaga",
    "country": "PG",
    "name": "Pimaga Airport"
  },
  "MPF": {
    "lat": -7.979,
    "lon": 143.1694,
    "city": "Mapoda",
    "country": "PG",
    "name": "Mapoda Airport"
  },
  "PMN": {
    "lat": -9.7469,
    "lon": 149.4766,
    "city": "Pumani",
    "country": "PG",
    "name": "Pumani Airport"
  },
  "WLU": {
    "lat": -6.475161,
    "lon": 143.987222,
    "city": "Puri",
    "country": "PG",
    "name": "Walluanda Airport"
  },
  "POM": {
    "lat": -9.443380355834961,
    "lon": 147.22000122070312,
    "city": "Port Moresby",
    "country": "PG",
    "name": "Port Moresby Jacksons International Airport"
  },
  "KRJ": {
    "lat": -4.59666666667,
    "lon": 143.5225,
    "city": "Amboin",
    "country": "PG",
    "name": "Karawari Airstrip"
  },
  "TLP": {
    "lat": -4.7748,
    "lon": 141.0133,
    "city": "Tumolbil",
    "country": "PG",
    "name": "Tumolbil Airport"
  },
  "SPH": {
    "lat": -8.3038,
    "lon": 147.1659,
    "city": "Sopu",
    "country": "PG",
    "name": "Sopu Airport"
  },
  "ONB": {
    "lat": -8.67436111111,
    "lon": 147.262416667,
    "city": "Onange Mission",
    "country": "PG",
    "name": "Ononge Airport"
  },
  "SXA": {
    "lat": -6.0908,
    "lon": 147.5955,
    "city": "Sialum",
    "country": "PG",
    "name": "Sialum Airport"
  },
  "KIQ": {
    "lat": -8.065111111110001,
    "lon": 147.332027778,
    "city": "Kira",
    "country": "PG",
    "name": "Kira Airport"
  },
  "RBP": {
    "lat": -9.97111111111,
    "lon": 149.832222222,
    "city": "Rabaraba",
    "country": "PG",
    "name": "Raba Raba Airport"
  },
  "RMN": {
    "lat": -5.89722222222,
    "lon": 141.271666667,
    "city": "",
    "country": "PG",
    "name": "Rumginae Airport"
  },
  "KMR": {
    "lat": -6.4921,
    "lon": 144.823,
    "city": "Karimui",
    "country": "PG",
    "name": "Karimui Airport"
  },
  "RKU": {
    "lat": -8.817000054,
    "lon": 146.5243833,
    "city": "Yule Island",
    "country": "PG",
    "name": "Kairuku Airport"
  },
  "MWI": {
    "lat": -5.13,
    "lon": 143.4829,
    "city": "Maramuni",
    "country": "PG",
    "name": "Maramuni Airport"
  },
  "KOR": {
    "lat": -7.8346666666700004,
    "lon": 146.5335,
    "city": "Kakoro",
    "country": "PG",
    "name": "Kakoro(Koroko) Airstrip"
  },
  "MRH": {
    "lat": -4.3615,
    "lon": 141.785,
    "city": "May River",
    "country": "PG",
    "name": "May River Airstrip"
  },
  "SBE": {
    "lat": -6.10444444444,
    "lon": 142.278333333,
    "city": "",
    "country": "PG",
    "name": "Suabi Airport"
  },
  "SDI": {
    "lat": -5.62713888889,
    "lon": 146.462777778,
    "city": "Saidor",
    "country": "PG",
    "name": "Saidor Airport"
  },
  "NIS": {
    "lat": -2.66222222222,
    "lon": 151.997777778,
    "city": "Simberi Island",
    "country": "PG",
    "name": "Simberi Airport"
  },
  "SFU": {
    "lat": -9.59305555556,
    "lon": 148.636111111,
    "city": "Safia",
    "country": "PG",
    "name": "Safia Airport"
  },
  "SIL": {
    "lat": -9.07355555556,
    "lon": 148.38925,
    "city": "Sila Mission",
    "country": "PG",
    "name": "Sila Airport"
  },
  "SBV": {
    "lat": -5.5765,
    "lon": 155.0489,
    "city": "Sabah",
    "country": "PG",
    "name": "Sabah Airport"
  },
  "SIM": {
    "lat": -5.278611111110001,
    "lon": 144.544722222,
    "city": "Simbai",
    "country": "PG",
    "name": "Simbai Airport"
  },
  "SGK": {
    "lat": -5.12583333333,
    "lon": 144.323611111,
    "city": "Sengapi",
    "country": "PG",
    "name": "Sengapi Airstrip"
  },
  "SXH": {
    "lat": -9.96452777778,
    "lon": 151.161861111,
    "city": "Sehulea",
    "country": "PG",
    "name": "Sehulea Airport"
  },
  "SBC": {
    "lat": -5.315,
    "lon": 141.752,
    "city": "Selbang",
    "country": "PG",
    "name": "Selbang Airport"
  },
  "SMH": {
    "lat": -6.075277777779999,
    "lon": 146.811111111,
    "city": "Sapmanga",
    "country": "PG",
    "name": "Sapmanga Airport"
  },
  "SPV": {
    "lat": -3.8821,
    "lon": 143.6734,
    "city": "Sepik Plains",
    "country": "PG",
    "name": "Sepik Plains Airport"
  },
  "TDS": {
    "lat": -7.6217,
    "lon": 142.868,
    "city": "Sasereme",
    "country": "PG",
    "name": "Sasereme Airport"
  },
  "SKC": {
    "lat": -8.0466,
    "lon": 141.7222,
    "city": "Suki",
    "country": "PG",
    "name": "Suki Airport"
  },
  "SXW": {
    "lat": -5.9701,
    "lon": 148.8543,
    "city": "Sauren",
    "country": "PG",
    "name": "Sauren Airport"
  },
  "SWG": {
    "lat": -6.13955555556,
    "lon": 147.279166667,
    "city": "Satwag",
    "country": "PG",
    "name": "Satwag Airport"
  },
  "MBV": {
    "lat": -6.345,
    "lon": 147.591,
    "city": "Masa",
    "country": "PG",
    "name": "Masa Airport"
  },
  "TIZ": {
    "lat": -5.845,
    "lon": 142.947998,
    "city": "Tari",
    "country": "PG",
    "name": "Tari Airport"
  },
  "TBG": {
    "lat": -5.280471,
    "lon": 141.227576,
    "city": "Tabubil",
    "country": "PG",
    "name": "Tabubil Airport"
  },
  "TFM": {
    "lat": -5.12608,
    "lon": 141.641922,
    "city": "Telefomin",
    "country": "PG",
    "name": "Telefomin Airport"
  },
  "TDB": {
    "lat": -9.1586,
    "lon": 148.0686,
    "city": "Tetebedi",
    "country": "PG",
    "name": "Tetebedi Airport"
  },
  "TGL": {
    "lat": -11.3311111111,
    "lon": 153.202916667,
    "city": "Sudest Island",
    "country": "PG",
    "name": "Tagula Airport"
  },
  "TFB": {
    "lat": -5.117249,
    "lon": 141.418076,
    "city": "Tifalmin",
    "country": "PG",
    "name": "Tifalmin Airport"
  },
  "TPI": {
    "lat": -8.35666666667,
    "lon": 146.989166667,
    "city": "Tapini",
    "country": "PG",
    "name": "Tapini Airport"
  },
  "RAB": {
    "lat": -4.34046,
    "lon": 152.380005,
    "city": "Kokopo",
    "country": "PG",
    "name": "Tokua Airport"
  },
  "TKW": {
    "lat": -5.243667,
    "lon": 142.165194,
    "city": "Tekin",
    "country": "PG",
    "name": "Tekin Airport"
  },
  "KDQ": {
    "lat": -3.600556,
    "lon": 141.051667,
    "city": "Kamberatoro Mission",
    "country": "PG",
    "name": "Kamberatoro Airport"
  },
  "TEP": {
    "lat": -5.9553,
    "lon": 146.5595,
    "city": "Teptep",
    "country": "PG",
    "name": "Tep Tep Airport"
  },
  "TBQ": {
    "lat": -6.46666666667,
    "lon": 145.532222222,
    "city": "Tarabo",
    "country": "PG",
    "name": "Tarabo Airport"
  },
  "TSW": {
    "lat": -7.0695,
    "lon": 146.1272,
    "city": "Tsewi",
    "country": "PG",
    "name": "Tsewi Airport"
  },
  "TRJ": {
    "lat": -5.614,
    "lon": 141.0421,
    "city": "Tarakbits",
    "country": "PG",
    "name": "Tarakbits Airport"
  },
  "TFI": {
    "lat": -9.07595443726,
    "lon": 149.319839478,
    "city": "Tufi",
    "country": "PG",
    "name": "Tufi Airport"
  },
  "TBE": {
    "lat": -4.196633,
    "lon": 143.519222,
    "city": "Timbunke",
    "country": "PG",
    "name": "Timbunke Airport"
  },
  "TWY": {
    "lat": -7.4463,
    "lon": 146.1067,
    "city": "Tawa",
    "country": "PG",
    "name": "Tawa Airport"
  },
  "TEO": {
    "lat": -8.16972222222,
    "lon": 146.194444444,
    "city": "Terapo Mission",
    "country": "PG",
    "name": "Terapo Airport"
  },
  "TKB": {
    "lat": -7.6808,
    "lon": 146.5503,
    "city": "Tekadu",
    "country": "PG",
    "name": "Tekadu Airport"
  },
  "UMC": {
    "lat": -7.0214,
    "lon": 145.966,
    "city": "Umba",
    "country": "PG",
    "name": "Umba Airport"
  },
  "URU": {
    "lat": -9.5162,
    "lon": 148.5591,
    "city": "Uroubi",
    "country": "PG",
    "name": "Uroubi Airport"
  },
  "UBI": {
    "lat": -6.72916666667,
    "lon": 155.683333333,
    "city": "Buin",
    "country": "PG",
    "name": "Buin Airport"
  },
  "AUV": {
    "lat": -5.731111111110001,
    "lon": 148.445277778,
    "city": "Aumo",
    "country": "PG",
    "name": "Aumo Airport"
  },
  "GLP": {
    "lat": -5.2808,
    "lon": 141.5411,
    "city": "Gulgubip",
    "country": "PG",
    "name": "Gulgubip Airport"
  },
  "UPR": {
    "lat": -8.5411,
    "lon": 142.6503,
    "city": "Upiara",
    "country": "PG",
    "name": "Upiara Airport"
  },
  "KUX": {
    "lat": -5.372361111110001,
    "lon": 141.623888889,
    "city": "",
    "country": "PG",
    "name": "Kuyol Airport"
  },
  "UVO": {
    "lat": -6.0178,
    "lon": 150.9557,
    "city": "Uvol",
    "country": "PG",
    "name": "Uvol Airport"
  },
  "TLW": {
    "lat": -5.2726,
    "lon": 150.0089,
    "city": "Talasea",
    "country": "PG",
    "name": "Talasea Airport"
  },
  "TCJ": {
    "lat": -4.0165,
    "lon": 143.1329,
    "city": "Torembi",
    "country": "PG",
    "name": "Torembi Airport"
  },
  "VAI": {
    "lat": -2.6926,
    "lon": 141.3028,
    "city": "Vanimo",
    "country": "PG",
    "name": "Vanimo Airport"
  },
  "TON": {
    "lat": -6.6552,
    "lon": 155.4326,
    "city": "Tonu",
    "country": "PG",
    "name": "Tonu Airport"
  },
  "WUV": {
    "lat": -1.73611111111,
    "lon": 142.836666667,
    "city": "Wuvulu Island",
    "country": "PG",
    "name": "Wuvulu Island Airport"
  },
  "WAO": {
    "lat": -6.98944444444,
    "lon": 145.075111111,
    "city": "Wabo",
    "country": "PG",
    "name": "Wabo Airport"
  },
  "WTT": {
    "lat": -6.1325,
    "lon": 146.467777778,
    "city": "Wantoat",
    "country": "PG",
    "name": "Wantoat Airport"
  },
  "WBM": {
    "lat": -5.635293,
    "lon": 143.892231,
    "city": "Wapenamanda",
    "country": "PG",
    "name": "Wapenamanda Airport"
  },
  "WAJ": {
    "lat": -6.9523,
    "lon": 142.6557,
    "city": "Wavoi Falls",
    "country": "PG",
    "name": "Wawoi Falls Airport"
  },
  "AGL": {
    "lat": -9.3375,
    "lon": 149.155556,
    "city": "Wanigela",
    "country": "PG",
    "name": "Wanigela Airport"
  },
  "WNU": {
    "lat": -4.8961,
    "lon": 145.3213,
    "city": "Wanuma",
    "country": "PG",
    "name": "Wanuma Airport"
  },
  "WBC": {
    "lat": -9.3376,
    "lon": 150.5093,
    "city": "Wapolu",
    "country": "PG",
    "name": "Wapolu Airport"
  },
  "WWK": {
    "lat": -3.58383011818,
    "lon": 143.669006348,
    "city": "Wewak",
    "country": "PG",
    "name": "Wewak International Airport"
  },
  "WOA": {
    "lat": -6.796861111110001,
    "lon": 145.891944444,
    "city": "Wonenara",
    "country": "PG",
    "name": "Wonenara Airport"
  },
  "WKN": {
    "lat": -5.8603,
    "lon": 155.2223,
    "city": "Wakunai",
    "country": "PG",
    "name": "Wakunai Airport"
  },
  "WSU": {
    "lat": -5.96170944919,
    "lon": 147.19822526,
    "city": "Wasu",
    "country": "PG",
    "name": "Wasu Airport"
  },
  "WTP": {
    "lat": -8.545833,
    "lon": 147.2525,
    "city": "Fatima Mission",
    "country": "PG",
    "name": "Woitape Airport"
  },
  "WUG": {
    "lat": -7.345556,
    "lon": 146.718611,
    "city": "Wau",
    "country": "PG",
    "name": "Wau Airport"
  },
  "YVD": {
    "lat": -7.548,
    "lon": 146.188,
    "city": "Yeva",
    "country": "PG",
    "name": "Yeva Airport"
  },
  "SMJ": {
    "lat": -7.75,
    "lon": 146.9273,
    "city": "Sim",
    "country": "PG",
    "name": "Sim Airport"
  },
  "TLO": {
    "lat": -4.98083019257,
    "lon": 152.009994507,
    "city": "Tol",
    "country": "PG",
    "name": "Tol Airport"
  },
  "WPM": {
    "lat": -8.78822,
    "lon": 142.882004,
    "city": "Wipim",
    "country": "PG",
    "name": "Wipim Airport"
  },
  "WEP": {
    "lat": -8.6184,
    "lon": 141.1381,
    "city": "Weam",
    "country": "PG",
    "name": "Weam Airport"
  },
  "AYY": {
    "lat": 6.86,
    "lon": 81.82388888890002,
    "city": "Pottuvil",
    "country": "LK",
    "name": "Arugam Bay SPB"
  },
  "KYX": {
    "lat": -6.09,
    "lon": 147.0117,
    "city": "Yalumet",
    "country": "PG",
    "name": "Yalumet Airport"
  },
  "YEQ": {
    "lat": -5.10972222222,
    "lon": 143.917666667,
    "city": "",
    "country": "PG",
    "name": "Yenkis(Yankisa) Airport"
  },
  "TCK": {
    "lat": -4.0949,
    "lon": 143.3838,
    "city": "Tinboli",
    "country": "PG",
    "name": "Tinboli Airport"
  },
  "LNF": {
    "lat": -4.855941,
    "lon": 141.220165,
    "city": "",
    "country": "PG",
    "name": "Munbil Airport"
  },
  "RAX": {
    "lat": -9.632916666669997,
    "lon": 148.048055556,
    "city": "",
    "country": "PG",
    "name": "Oram Airport"
  },
  "KPE": {
    "lat": -4.6280555555600005,
    "lon": 141.094166667,
    "city": "",
    "country": "PG",
    "name": "Yapsiei Airport"
  },
  "KSX": {
    "lat": -6.6015,
    "lon": 146.1813,
    "city": "Yasuru",
    "country": "PG",
    "name": "Yasuru Airport"
  },
  "ZEN": {
    "lat": -6.9522222222200005,
    "lon": 146.61625,
    "city": "Zenag",
    "country": "PG",
    "name": "Zenag Airport"
  },
  "SWR": {
    "lat": -4.5298888888899995,
    "lon": 153.054444444,
    "city": "Silur Mission",
    "country": "PG",
    "name": "Silur Airport"
  },
  "WUM": {
    "lat": -6.0491,
    "lon": 149.337,
    "city": "Wasum",
    "country": "PG",
    "name": "Wasum Airport"
  },
  "SIZ": {
    "lat": -2.99944444444,
    "lon": 142.0445,
    "city": "Sissano",
    "country": "PG",
    "name": "Sissano Airport"
  },
  "OSG": {
    "lat": -2.91555555556,
    "lon": 141.297305556,
    "city": "Ossima",
    "country": "PG",
    "name": "Ossima Airport"
  },
  "ZXT": {
    "lat": 40.494884,
    "lon": 49.977065,
    "city": "Zabrat",
    "country": "AZ",
    "name": "Zabrat Airport"
  },
  "HAE": {
    "lat": 36.191600799599996,
    "lon": -113.092002869,
    "city": "Supai Village",
    "country": "US",
    "name": "Lava Falls Heliport"
  },
  "AZB": {
    "lat": -10.2991666667,
    "lon": 149.338333333,
    "city": "",
    "country": "PG",
    "name": "Amazon Bay Airport"
  },
  "BAJ": {
    "lat": -4.8833333333299995,
    "lon": 149.133333333,
    "city": "Unea Island",
    "country": "PG",
    "name": "Bali Airport"
  },
  "BCW": {
    "lat": -21.8533,
    "lon": 35.438301,
    "city": "Benguera Island",
    "country": "MZ",
    "name": "Benguera Island Airport"
  },
  "BCZ": {
    "lat": -13.780833333299999,
    "lon": 136.201666667,
    "city": "Bickerton Island",
    "country": "AU",
    "name": "Milyakburra Airport"
  },
  "JAM": {
    "lat": 42.454899,
    "lon": 26.3522,
    "city": "Bezmer",
    "country": "BG",
    "name": "Bezmer Air Base"
  },
  "JEG": {
    "lat": 68.721802,
    "lon": -52.784698,
    "city": "Aasiaat",
    "country": "GL",
    "name": "Aasiaat Airport"
  },
  "AOQ": {
    "lat": 72.88703,
    "lon": -55.596287,
    "city": "Aappilattoq",
    "country": "GL",
    "name": "Aappilattoq Heliport"
  },
  "AGM": {
    "lat": 65.612296,
    "lon": -37.618335,
    "city": "Tasiilaq",
    "country": "GL",
    "name": "Tasiilaq Heliport"
  },
  "LLU": {
    "lat": 60.46445,
    "lon": -45.56917,
    "city": "Alluitsup Paa",
    "country": "GL",
    "name": "Alluitsup Paa Heliport"
  },
  "QUV": {
    "lat": 60.148357,
    "lon": -44.286916,
    "city": "Aappilattoq",
    "country": "GL",
    "name": "Aappilattoq Heliport"
  },
  "JRK": {
    "lat": 61.176828,
    "lon": -48.419698,
    "city": "Arsuk",
    "country": "GL",
    "name": "Arsuk Heliport"
  },
  "QUW": {
    "lat": 60.597376,
    "lon": -45.382445,
    "city": "Ammassivik",
    "country": "GL",
    "name": "Ammassivik Heliport"
  },
  "QGQ": {
    "lat": 67.940663,
    "lon": -53.62187,
    "city": "Attu",
    "country": "GL",
    "name": "Attu Heliport"
  },
  "UAK": {
    "lat": 61.1605,
    "lon": -45.425999,
    "city": "Narsarsuaq",
    "country": "GL",
    "name": "Narsarsuaq Airport"
  },
  "JCH": {
    "lat": 68.822816,
    "lon": -51.173447,
    "city": "Qasigiannguit",
    "country": "GL",
    "name": "Qasigiannguit Heliport"
  },
  "CNP": {
    "lat": 70.743103,
    "lon": -22.650499,
    "city": "Neerlerit Inaat",
    "country": "GL",
    "name": "Neerlerit Inaat Airport"
  },
  "QFG": {
    "lat": 60.61972,
    "lon": -45.914062,
    "city": "Eqalugaarsuit",
    "country": "GL",
    "name": "Eqalugaarsuit Heliport"
  },
  "QFN": {
    "lat": 60.004694,
    "lon": -44.656935,
    "city": "Narsarmijit",
    "country": "GL",
    "name": "Narsarmijit Heliport"
  },
  "JGR": {
    "lat": 61.22896,
    "lon": -48.09698,
    "city": "Kangilinnguit",
    "country": "GL",
    "name": "Kangilinnguit Heliport"
  },
  "GOH": {
    "lat": 64.191066,
    "lon": -51.67914,
    "city": "Nuuk",
    "country": "GL",
    "name": "Nuuk Airport"
  },
  "JGO": {
    "lat": 69.251182,
    "lon": -53.514876,
    "city": "Qeqertarsuaq",
    "country": "GL",
    "name": "Qeqertarsuaq Heliport"
  },
  "IKE": {
    "lat": 70.498145,
    "lon": -51.303084,
    "city": "Ikerasak",
    "country": "GL",
    "name": "Ikerasak Heliport"
  },
  "QFI": {
    "lat": 68.147226,
    "lon": -53.173528,
    "city": "Iginniarfik",
    "country": "GL",
    "name": "Iginniarfik Heliport"
  },
  "QRY": {
    "lat": 68.140881,
    "lon": -53.441459,
    "city": "Ikerassaarsuk",
    "country": "GL",
    "name": "Ikerassaarsuk Heliport"
  },
  "XIQ": {
    "lat": 69.080915,
    "lon": -51.114315,
    "city": "Ilimanaq",
    "country": "GL",
    "name": "Ilimanaq Heliport"
  },
  "IUI": {
    "lat": 73.199895,
    "lon": -56.010817,
    "city": "Innarsuit",
    "country": "GL",
    "name": "Innarsuit Heliport"
  },
  "IOQ": {
    "lat": 65.547792,
    "lon": -38.976552,
    "city": "Isortoq",
    "country": "GL",
    "name": "Isortoq Heliport"
  },
  "QJI": {
    "lat": 68.634253,
    "lon": -51.832262,
    "city": "Ikamiut",
    "country": "GL",
    "name": "Ikamiut Heliport"
  },
  "JJU": {
    "lat": 60.715684,
    "lon": -46.029919,
    "city": "Qaqortoq",
    "country": "GL",
    "name": "Qaqortoq Heliport"
  },
  "JAV": {
    "lat": 69.243202,
    "lon": -51.057098,
    "city": "Ilulissat",
    "country": "GL",
    "name": "Ilulissat Airport"
  },
  "QPW": {
    "lat": 68.312657,
    "lon": -53.460208,
    "city": "Kangaatsiaq",
    "country": "GL",
    "name": "Kangaatsiaq Heliport"
  },
  "KUS": {
    "lat": 65.573601,
    "lon": -37.1236,
    "city": "Kulusuk",
    "country": "GL",
    "name": "Kulusuk Airport"
  },
  "KUZ": {
    "lat": 65.863935,
    "lon": -36.997919,
    "city": "Kuummiut",
    "country": "GL",
    "name": "Kuummiut Heliport"
  },
  "KHQ": {
    "lat": 74.57805,
    "lon": -57.226828,
    "city": "Kullorsuaq",
    "country": "GL",
    "name": "Kullorsuaq Heliport"
  },
  "KGQ": {
    "lat": 72.381092,
    "lon": -55.536586,
    "city": "Kangersuatsiaq",
    "country": "GL",
    "name": "Kangersuatsiaq Heliport"
  },
  "QJE": {
    "lat": 68.857926,
    "lon": -53.123295,
    "city": "Kitsissuarsuit",
    "country": "GL",
    "name": "Kitsissuarsuit Heliport"
  },
  "IOT": {
    "lat": 71.241944,
    "lon": -53.562877,
    "city": "Illorsuit",
    "country": "GL",
    "name": "Illorsuit Heliport"
  },
  "JSU": {
    "lat": 65.412498,
    "lon": -52.9394,
    "city": "Maniitsoq",
    "country": "GL",
    "name": "Maniitsoq Airport"
  },
  "JNN": {
    "lat": 60.141884,
    "lon": -45.232977,
    "city": "Nanortalik",
    "country": "GL",
    "name": "Nanortalik Heliport"
  },
  "JUU": {
    "lat": 71.538769,
    "lon": -53.205038,
    "city": "Nuugaatsiaq",
    "country": "GL",
    "name": "Nuugaatsiaq Heliport"
  },
  "JNS": {
    "lat": 60.917283,
    "lon": -46.059923,
    "city": "Narsaq",
    "country": "GL",
    "name": "Narsaq Heliport"
  },
  "NIQ": {
    "lat": 70.789385,
    "lon": -53.662945,
    "city": "Niaqornat",
    "country": "GL",
    "name": "Niaqornat Heliport"
  },
  "NSQ": {
    "lat": 74.109853,
    "lon": -57.065037,
    "city": "Nuussuaq",
    "country": "GL",
    "name": "Nuussuaq Heliport"
  },
  "JFR": {
    "lat": 62.014736,
    "lon": -49.670937,
    "city": "Paamiut",
    "country": "GL",
    "name": "Paamiut Airport"
  },
  "PQT": {
    "lat": 69.995861,
    "lon": -51.300917,
    "city": "Qeqertaq",
    "country": "GL",
    "name": "Qeqertaq Heliport"
  },
  "NAQ": {
    "lat": 77.488602,
    "lon": -69.388702,
    "city": "Qaanaaq",
    "country": "GL",
    "name": "Qaanaaq Airport"
  },
  "QJH": {
    "lat": 60.780959,
    "lon": -47.156249,
    "city": "Qassimiut",
    "country": "GL",
    "name": "Qassimiut Heliport"
  },
  "OBY": {
    "lat": 70.488229,
    "lon": -21.97168,
    "city": "Ittoqqortoormiit",
    "country": "GL",
    "name": "Ittoqqortoormiit Heliport"
  },
  "SFJ": {
    "lat": 67.010446,
    "lon": -50.715294,
    "city": "Kangerlussuaq",
    "country": "GL",
    "name": "Kangerlussuaq Airport"
  },
  "SGG": {
    "lat": 65.90592,
    "lon": -36.378254,
    "city": "Sermiligaaq",
    "country": "GL",
    "name": "Sermiligaaq Heliport"
  },
  "SRK": {
    "lat": 77.786517,
    "lon": -70.638657,
    "city": "Siorapaluk",
    "country": "GL",
    "name": "Siorapaluk Heliport"
  },
  "QOQ": {
    "lat": 60.537778,
    "lon": -46.024722,
    "city": "Saarloq",
    "country": "GL",
    "name": "Saarloq Heliport"
  },
  "JHS": {
    "lat": 66.951302,
    "lon": -53.729301,
    "city": "Sisimiut",
    "country": "GL",
    "name": "Sisimiut Airport"
  },
  "SAE": {
    "lat": 70.811172,
    "lon": -51.63129,
    "city": "Saattut",
    "country": "GL",
    "name": "Saattut Heliport"
  },
  "SVR": {
    "lat": 76.018613,
    "lon": -65.117683,
    "city": "Savissivik",
    "country": "GL",
    "name": "Savissivik Heliport"
  },
  "TQA": {
    "lat": 73.373055,
    "lon": -56.06028,
    "city": "Tasiusaq",
    "country": "GL",
    "name": "Tasiusaq Heliport"
  },
  "THU": {
    "lat": 76.531197,
    "lon": -68.703201,
    "city": "Pituffik",
    "country": "GL",
    "name": "Pituffik Space Base"
  },
  "TQI": {
    "lat": 65.892027,
    "lon": -37.783409,
    "city": "Tiniteqilaaq",
    "country": "GL",
    "name": "Tiniteqilaaq Heliport"
  },
  "XEQ": {
    "lat": 60.194305,
    "lon": -44.813447,
    "city": "Tasiusak",
    "country": "GL",
    "name": "Tasiusaq Heliport"
  },
  "JUV": {
    "lat": 72.790199,
    "lon": -56.1306,
    "city": "Upernavik",
    "country": "GL",
    "name": "Upernavik Airport"
  },
  "UMD": {
    "lat": 70.680428,
    "lon": -52.11163,
    "city": "Uummannaq",
    "country": "GL",
    "name": "Uummannaq Heliport"
  },
  "JQA": {
    "lat": 70.7342,
    "lon": -52.696201,
    "city": "Uummannaq",
    "country": "GL",
    "name": "Qaarsut Airport"
  },
  "JUK": {
    "lat": 71.049438,
    "lon": -51.890016,
    "city": "Ukkusissat",
    "country": "GL",
    "name": "Ukkusissat Heliport"
  },
  "BHL": {
    "lat": 28.9786,
    "lon": -113.560997,
    "city": "Ensenada",
    "country": "MX",
    "name": "Bahía de los Ángeles Airport"
  },
  "BHT": {
    "lat": -23.363333,
    "lon": 141.562778,
    "city": "Brighton Downs",
    "country": "AU",
    "name": "Brighton Downs Airport"
  },
  "AEY": {
    "lat": 65.656573,
    "lon": -18.072018,
    "city": "Akureyri",
    "country": "IS",
    "name": "Akureyri Airport"
  },
  "BIU": {
    "lat": 65.641296,
    "lon": -23.5462,
    "city": "Bildudalur",
    "country": "IS",
    "name": "Bildudalur Airport"
  },
  "BGJ": {
    "lat": 65.516769,
    "lon": -13.81578,
    "city": "Borgarfjörður eystri",
    "country": "IS",
    "name": "Borgarfjörður eystri Airport"
  },
  "BJD": {
    "lat": 66.02189636230469,
    "lon": -14.824399948120117,
    "city": "Bakkafjörður",
    "country": "IS",
    "name": "Bakkafjörður Airport"
  },
  "BLO": {
    "lat": 65.644997,
    "lon": -20.2875,
    "city": "Blönduós",
    "country": "IS",
    "name": "Blönduós Airport"
  },
  "BXV": {
    "lat": 64.790037,
    "lon": -14.043927,
    "city": "Breiðdalsvík",
    "country": "IS",
    "name": "Breiðdalsvík Airport"
  },
  "DJU": {
    "lat": 64.642372,
    "lon": -14.277297,
    "city": "Djúpivogur",
    "country": "IS",
    "name": "Djúpivogur Airport"
  },
  "EGS": {
    "lat": 65.2833023071289,
    "lon": -14.401399612426758,
    "city": "Egilsstaðir",
    "country": "IS",
    "name": "Egilsstaðir Airport"
  },
  "FAS": {
    "lat": 64.931456,
    "lon": -14.047957,
    "city": "Fáskrúðsfjörður",
    "country": "IS",
    "name": "Fáskrúðsfjörður Airport"
  },
  "FAG": {
    "lat": 63.874699,
    "lon": -16.6411,
    "city": "Fagurhólsmýri",
    "country": "IS",
    "name": "Fagurhólsmýri Airport"
  },
  "GUU": {
    "lat": 64.991402,
    "lon": -23.224701,
    "city": "Grundarfjörður",
    "country": "IS",
    "name": "Grundarfjörður Airport"
  },
  "GJR": {
    "lat": 65.9953,
    "lon": -21.3269,
    "city": "Gjögur",
    "country": "IS",
    "name": "Gjögur Airport"
  },
  "GRY": {
    "lat": 66.5458,
    "lon": -18.0173,
    "city": "Grímsey",
    "country": "IS",
    "name": "Grímsey Airport"
  },
  "HVK": {
    "lat": 65.704697,
    "lon": -21.6964,
    "city": "Hólmavík",
    "country": "IS",
    "name": "Hólmavík Airport"
  },
  "HFN": {
    "lat": 64.295601,
    "lon": -15.2272,
    "city": "Höfn",
    "country": "IS",
    "name": "Hornafjörður Airport"
  },
  "FLI": {
    "lat": 66.0141804294,
    "lon": -23.4416913986,
    "city": "Flateyri",
    "country": "IS",
    "name": "Holt Airport"
  },
  "HZK": {
    "lat": 65.952301,
    "lon": -17.426001,
    "city": "Húsavík",
    "country": "IS",
    "name": "Húsavík Airport"
  },
  "HLO": {
    "lat": 66.05000305175781,
    "lon": -23.69610023498535,
    "city": "Onundarfjörður",
    "country": "IS",
    "name": "Ingjaldssanður Airport"
  },
  "IFJ": {
    "lat": 66.058098,
    "lon": -23.1353,
    "city": "Ísafjörður",
    "country": "IS",
    "name": "Ísafjörður Airport"
  },
  "KEF": {
    "lat": 63.985001,
    "lon": -22.6056,
    "city": "Reykjavík",
    "country": "IS",
    "name": "Keflavik International Airport"
  },
  "OPA": {
    "lat": 66.310799,
    "lon": -16.4667,
    "city": "Kópasker",
    "country": "IS",
    "name": "Kópasker Airport"
  },
  "SAK": {
    "lat": 65.73169708249999,
    "lon": -19.572799682599996,
    "city": "Sauðárkrókur",
    "country": "IS",
    "name": "Sauðárkrókur Airport"
  },
  "NOR": {
    "lat": 65.131897,
    "lon": -13.7464,
    "city": "Norðfjörður",
    "country": "IS",
    "name": "Norðfjörður Airport"
  },
  "OFJ": {
    "lat": 66.083298,
    "lon": -18.6667,
    "city": "Ólafsfjörður",
    "country": "IS",
    "name": "Ólafsfjörður Airport"
  },
  "PFJ": {
    "lat": 65.555801,
    "lon": -23.965,
    "city": "Patreksfjörður",
    "country": "IS",
    "name": "Patreksfjörður Airport"
  },
  "RHA": {
    "lat": 65.45262908935547,
    "lon": -22.20611572265625,
    "city": "Reykhólar",
    "country": "IS",
    "name": "Reykhólar Airport"
  },
  "OLI": {
    "lat": 64.9114,
    "lon": -23.823099,
    "city": "Rif",
    "country": "IS",
    "name": "Rif Airport"
  },
  "RFN": {
    "lat": 66.406403,
    "lon": -15.9183,
    "city": "Raufarhöfn",
    "country": "IS",
    "name": "Raufarhöfn Airport"
  },
  "RKV": {
    "lat": 64.128732,
    "lon": -21.93759,
    "city": "Reykjavík",
    "country": "IS",
    "name": "Reykjavík Domestic Airport"
  },
  "MVA": {
    "lat": 65.6558,
    "lon": -16.9181,
    "city": "Myvatn",
    "country": "IS",
    "name": "Reykjahlíð Airport"
  },
  "SIJ": {
    "lat": 66.137847,
    "lon": -18.908157,
    "city": "Siglufjörður",
    "country": "IS",
    "name": "Siglufjörður Airport"
  },
  "SYK": {
    "lat": 65.058851,
    "lon": -22.764616,
    "city": "Stykkishólmur",
    "country": "IS",
    "name": "Stykkishólmur Airport"
  },
  "TEY": {
    "lat": 65.8703,
    "lon": -23.559999,
    "city": "Þingeyri",
    "country": "IS",
    "name": "Þingeyri Airport"
  },
  "THO": {
    "lat": 66.218498,
    "lon": -15.3356,
    "city": "Þórshöfn",
    "country": "IS",
    "name": "Þórshöfn Airport"
  },
  "VEY": {
    "lat": 63.42430114746094,
    "lon": -20.278900146484375,
    "city": "Vestmannaeyjar",
    "country": "IS",
    "name": "Vestmannaeyjar Airport"
  },
  "VPN": {
    "lat": 65.720596,
    "lon": -14.8506,
    "city": "Vopnafjörður",
    "country": "IS",
    "name": "Vopnafjörður Airport"
  },
  "BJE": {
    "lat": 11.199444444400001,
    "lon": 28.5230555556,
    "city": "Baleela Base Camp",
    "country": "SD",
    "name": "Baleela Airport"
  },
  "BJQ": {
    "lat": 19.8730555556,
    "lon": 56.067777777799996,
    "city": "Bahja",
    "country": "OM",
    "name": "Bahja Airport"
  },
  "BJT": {
    "lat": 6.431,
    "lon": 79.996,
    "city": "Bentota",
    "country": "LK",
    "name": "Bentota River Waterdrome"
  },
  "PRN": {
    "lat": 42.5728,
    "lon": 21.035801,
    "city": "Prishtina",
    "country": "XK",
    "name": "Priština Adem Jashari International Airport"
  },
  "BMQ": {
    "lat": -3.983363,
    "lon": 39.730982,
    "city": "Bamburi",
    "country": "KE",
    "name": "Bamburi Airport"
  },
  "BNF": {
    "lat": 57.088799,
    "lon": -134.833146,
    "city": "Baranof",
    "country": "US",
    "name": "Baranof Warm Springs Float and Seaplane Base"
  },
  "BNV": {
    "lat": -6.426631,
    "lon": 146.826697,
    "city": "Boana",
    "country": "PG",
    "name": "Boana Airport"
  },
  "BVL": {
    "lat": -13.654426,
    "lon": -63.704718,
    "city": "Baures",
    "country": "BO",
    "name": "Baures Airport"
  },
  "BOV": {
    "lat": -3.3834,
    "lon": 153.2812,
    "city": "Boang Island",
    "country": "PG",
    "name": "Boang Airport"
  },
  "BQV": {
    "lat": 58.4552,
    "lon": -135.884995,
    "city": "Gustavus",
    "country": "US",
    "name": "Bartlett Cove Seaplane Base"
  },
  "CJZ": {
    "lat": -6.8827,
    "lon": -38.61583,
    "city": "Cajazeiras",
    "country": "BR",
    "name": "Pedro Vieira Moreira Airport"
  },
  "VDC": {
    "lat": -14.907885,
    "lon": -40.914804,
    "city": "Vitória da Conquista",
    "country": "BR",
    "name": "Glauber de Andrade Rocha Airport"
  },
  "CMP": {
    "lat": -9.319906,
    "lon": -50.328536,
    "city": "Santana do Araguaia",
    "country": "BR",
    "name": "Santana do Araguaia Airport"
  },
  "AAI": {
    "lat": -13.025154,
    "lon": -46.884107,
    "city": "Arraias",
    "country": "BR",
    "name": "Arraias Airport"
  },
  "ITN": {
    "lat": -14.8105,
    "lon": -39.290401,
    "city": "Itabuna",
    "country": "BR",
    "name": "Tertuliano Guedes de Pinho Airport"
  },
  "LEP": {
    "lat": -21.468226,
    "lon": -42.727076,
    "city": "Leopoldina",
    "country": "BR",
    "name": "Leopoldina Airport"
  },
  "CPU": {
    "lat": -1.820006,
    "lon": -44.864065,
    "city": "Cururupu",
    "country": "BR",
    "name": "Cururupu Airport"
  },
  "CTQ": {
    "lat": -33.502038,
    "lon": -53.344911,
    "city": "Santa Vitória do Palmar",
    "country": "BR",
    "name": "Santa Vitória do Palmar Airport"
  },
  "APY": {
    "lat": -9.08533,
    "lon": -45.955603,
    "city": "Alto Parnaíba",
    "country": "BR",
    "name": "Alto Parnaíba Airport"
  },
  "JRN": {
    "lat": -10.305833,
    "lon": -58.489445,
    "city": "Juruena",
    "country": "BR",
    "name": "Juruena Airport"
  },
  "STZ": {
    "lat": -10.464722,
    "lon": -50.518612,
    "city": "Santa Terezinha",
    "country": "BR",
    "name": "Santa Terezinha Airport"
  },
  "MTG": {
    "lat": -14.995499,
    "lon": -59.945662,
    "city": "Vila Bela Da Santíssima Trindade",
    "country": "BR",
    "name": "Vila Bela da Santíssima Trindade Airport"
  },
  "ALT": {
    "lat": -1.917,
    "lon": -54.7231,
    "city": "Alenquer",
    "country": "BR",
    "name": "Alenquer Municipal Airport"
  },
  "NSB": {
    "lat": 25.767,
    "lon": -79.25,
    "city": "Bimini",
    "country": "BS",
    "name": "Bimini North Seaplane Base"
  },
  "BSV": {
    "lat": -15.6725,
    "lon": 47.061667,
    "city": "Besakoa",
    "country": "MG",
    "name": "Besakoa Airport"
  },
  "BTZ": {
    "lat": 5.79,
    "lon": 101.15,
    "city": "Betong",
    "country": "TH",
    "name": "Betong International Airport"
  },
  "HUK": {
    "lat": -23.9897,
    "lon": 21.758101,
    "city": "Hukuntsi",
    "country": "BW",
    "name": "Hukuntsi Airport"
  },
  "BWJ": {
    "lat": -6.396944444440001,
    "lon": 146.881666667,
    "city": "",
    "country": "PG",
    "name": "Bawan Airport"
  },
  "BXL": {
    "lat": -16.943,
    "lon": 177.368,
    "city": "Nanuya Lailai Island",
    "country": "FJ",
    "name": "Blue Lagoon Seaplane Base"
  },
  "TXC": {
    "lat": 54.439999,
    "lon": 30.2967,
    "city": "Orsha",
    "country": "BY",
    "name": "Orsha Airport - Balbasovo Air Base"
  },
  "BYA": {
    "lat": 64.077678,
    "lon": -141.122088,
    "city": "Boundary",
    "country": "US",
    "name": "Boundary Airport"
  },
  "BYL": {
    "lat": 7.36916666667,
    "lon": -9.99372222222,
    "city": "Beliyela",
    "country": "LR",
    "name": "Bella Yella Airport"
  },
  "BYV": {
    "lat": 6.9294444444400005,
    "lon": 79.85416666670001,
    "city": "Colombo",
    "country": "LK",
    "name": "Beira Lake Seaplane Base"
  },
  "BCV": {
    "lat": 17.269603,
    "lon": -88.776496,
    "city": "Belmopan",
    "country": "BZ",
    "name": "Hector Silva Airstrip"
  },
  "BGK": {
    "lat": 16.519369,
    "lon": -88.407913,
    "city": "Big Creek",
    "country": "BZ",
    "name": "Big Creek Airport"
  },
  "CUK": {
    "lat": 17.735015,
    "lon": -88.032862,
    "city": "Caye Caulker",
    "country": "BZ",
    "name": "Caye Caulker Airport"
  },
  "CYC": {
    "lat": 17.683792,
    "lon": -88.044985,
    "city": "Caye Chapel",
    "country": "BZ",
    "name": "Caye Chapel Airport"
  },
  "CZH": {
    "lat": 18.3822,
    "lon": -88.411903,
    "city": "Corozal",
    "country": "BZ",
    "name": "Corozal Airport"
  },
  "DGA": {
    "lat": 16.98251,
    "lon": -88.230988,
    "city": "Dangriga",
    "country": "BZ",
    "name": "Dangriga Airport"
  },
  "INB": {
    "lat": 16.53456,
    "lon": -88.441615,
    "city": "Independence",
    "country": "BZ",
    "name": "Independence Airport"
  },
  "MDB": {
    "lat": 17.004299,
    "lon": -88.304199,
    "city": "Melinda",
    "country": "BZ",
    "name": "Melinda Airport"
  },
  "ORZ": {
    "lat": 18.046767,
    "lon": -88.583858,
    "city": "Orange Walk",
    "country": "BZ",
    "name": "H.E Alfredo Martinez (Tower Hill) Airstrip"
  },
  "PND": {
    "lat": 16.1024,
    "lon": -88.808296,
    "city": "Punta Gorda",
    "country": "BZ",
    "name": "Punta Gorda Airport"
  },
  "SJX": {
    "lat": 18.3561,
    "lon": -88.130798,
    "city": "Sartaneja",
    "country": "BZ",
    "name": "Sartaneja Airport"
  },
  "SPR": {
    "lat": 17.9139,
    "lon": -87.9711,
    "city": "San Pedro",
    "country": "BZ",
    "name": "John Greif II Airport"
  },
  "SQS": {
    "lat": 17.185898,
    "lon": -89.009936,
    "city": "Spanish Lookout",
    "country": "BZ",
    "name": "Matthew Spain Airport"
  },
  "STU": {
    "lat": 18.2721004486084,
    "lon": -88.456298828125,
    "city": "Santa Cruz",
    "country": "BZ",
    "name": "Santa Cruz Airport"
  },
  "SVK": {
    "lat": 16.728338,
    "lon": -88.369174,
    "city": "Silver Creek",
    "country": "BZ",
    "name": "Silver Creek Airport"
  },
  "TZA": {
    "lat": 17.517239,
    "lon": -88.195775,
    "city": "Belize City",
    "country": "BZ",
    "name": "Sir Barry Bowen Municipal Airport"
  },
  "BZB": {
    "lat": -21.5411,
    "lon": 35.4729,
    "city": "Bazaruto Island",
    "country": "MZ",
    "name": "Bazaruto Island Airport"
  },
  "BZM": {
    "lat": -17.6925,
    "lon": 45.0888333333,
    "city": "Bemolanga",
    "country": "MG",
    "name": "Bemolanga Airport"
  },
  "PFM": {
    "lat": 55.390002,
    "lon": -111.1198,
    "city": "Primrose",
    "country": "CA",
    "name": "Primrose Airport"
  },
  "YSV": {
    "lat": 58.474312,
    "lon": -62.653999,
    "city": "Saglek",
    "country": "CA",
    "name": "Saglek Airport"
  },
  "YRR": {
    "lat": 50.409447,
    "lon": -125.131617,
    "city": "Big Bay",
    "country": "CA",
    "name": "Stuart Island Airstrip"
  },
  "YMV": {
    "lat": 71.324167,
    "lon": -79.356944,
    "city": "Mary River",
    "country": "CA",
    "name": "Mary River Aerodrome"
  },
  "YHC": {
    "lat": 51.669733,
    "lon": -128.08181,
    "city": "Hecate Island",
    "country": "CA",
    "name": "Hakai Passage Water Aerodrome"
  },
  "YMF": {
    "lat": 48.89225,
    "lon": -123.39215,
    "city": "Galiano Island",
    "country": "CA",
    "name": "Montague Harbour Seaplane Base"
  },
  "PYS": {
    "lat": 39.71029,
    "lon": -121.616528,
    "city": "Paradise",
    "country": "US",
    "name": "Paradise Skypark Airport"
  },
  "YBW": {
    "lat": 48.75,
    "lon": -123.233001709,
    "city": "Bedwell Harbour",
    "country": "CA",
    "name": "Bedwell Harbour Seaplane Base"
  },
  "YTP": {
    "lat": 49.155,
    "lon": -125.91,
    "city": "Tofino",
    "country": "CA",
    "name": "Tofino Harbour Seaplane Base"
  },
  "CBA": {
    "lat": 49.8636,
    "lon": -119.568045,
    "city": "West Kelowna",
    "country": "CA",
    "name": "Alpine Heliport"
  },
  "ZNA": {
    "lat": 49.169813,
    "lon": -123.933845,
    "city": "Nanaimo",
    "country": "CA",
    "name": "Nanaimo Harbour Water Aerodrome"
  },
  "YZZ": {
    "lat": 49.055599,
    "lon": -117.609001,
    "city": "Trail",
    "country": "CA",
    "name": "Trail Regional Airport"
  },
  "YMB": {
    "lat": 50.122504,
    "lon": -120.745368,
    "city": "Merritt",
    "country": "CA",
    "name": "Merritt Airport"
  },
  "YHH": {
    "lat": 50.049999,
    "lon": -125.25,
    "city": "Campbell River",
    "country": "CA",
    "name": "Campbell River Seaplane Base"
  },
  "YWS": {
    "lat": 50.1436004639,
    "lon": -122.948997498,
    "city": "Whistler",
    "country": "CA",
    "name": "Whistler/Green Lake Water Aerodrome"
  },
  "YBF": {
    "lat": 48.835967,
    "lon": -125.137453,
    "city": "Bamfield",
    "country": "CA",
    "name": "Bamfield Seaplane Base"
  },
  "YIG": {
    "lat": 50.3923,
    "lon": -125.1372,
    "city": "Stuart Island",
    "country": "CA",
    "name": "Big Bay Seaplane Base"
  },
  "CJH": {
    "lat": 51.625797,
    "lon": -124.144478,
    "city": "Chilko Lake",
    "country": "CA",
    "name": "Chilko Lake (Tsylos Park Lodge) Airport"
  },
  "YPT": {
    "lat": 49.623785,
    "lon": -124.024884,
    "city": "Sunshine Coast",
    "country": "CA",
    "name": "Pender Harbour Seaplane Base"
  },
  "ZOF": {
    "lat": 52.3666992188,
    "lon": -127.717002869,
    "city": "Ocean Falls",
    "country": "CA",
    "name": "Ocean Falls Seaplane Base"
  },
  "YCA": {
    "lat": 49.679237,
    "lon": -124.98064,
    "city": "Courtenay",
    "country": "CA",
    "name": "Courtenay Airpark"
  },
  "CFQ": {
    "lat": 49.03689956665,
    "lon": -116.49800109863,
    "city": "Creston",
    "country": "CA",
    "name": "Creston Valley Regional Airport - Art Sutcliffe Field"
  },
  "YAA": {
    "lat": 52.451501,
    "lon": -125.303776,
    "city": "Anahim Lake",
    "country": "CA",
    "name": "Anahim Lake Airport"
  },
  "DGF": {
    "lat": 50.1654600485,
    "lon": -120.171273351,
    "city": "Douglas Lake",
    "country": "CA",
    "name": "Douglas Lake Airport"
  },
  "JHL": {
    "lat": 57.223899841299996,
    "lon": -111.418998718,
    "city": "Albian Village",
    "country": "CA",
    "name": "Fort MacKay/Albian Aerodrome"
  },
  "ZTS": {
    "lat": 49.92,
    "lon": -126.655,
    "city": "Tahsis",
    "country": "CA",
    "name": "Tahsis Seaplane Base"
  },
  "DUQ": {
    "lat": 48.754534,
    "lon": -123.709702,
    "city": "Duncan",
    "country": "CA",
    "name": "Duncan Airport"
  },
  "YHS": {
    "lat": 49.460601806599996,
    "lon": -123.71900177,
    "city": "Sechelt",
    "country": "CA",
    "name": "Sechelt-Gibsons Airport"
  },
  "YKK": {
    "lat": 53.7999992371,
    "lon": -130.432998657,
    "city": "Kitkatla",
    "country": "CA",
    "name": "Kitkatla Seaplane Base"
  },
  "ZQS": {
    "lat": 53.25282,
    "lon": -132.074214,
    "city": "Queen Charlotte",
    "country": "CA",
    "name": "Queen Charlotte City Seaplane Base"
  },
  "WPL": {
    "lat": 49.887335,
    "lon": -124.53372,
    "city": "Powell River",
    "country": "CA",
    "name": "Powell Lake Seaplane Base"
  },
  "XQU": {
    "lat": 49.337456,
    "lon": -124.393086,
    "city": "Qualicum Beach",
    "country": "CA",
    "name": "Qualicum Beach Airport"
  },
  "YMP": {
    "lat": 50.57348,
    "lon": -127.027702,
    "city": "Port McNeill",
    "country": "CA",
    "name": "Port McNeill Airport"
  },
  "YRN": {
    "lat": 51.683985,
    "lon": -127.264044,
    "city": "Rivers Inlet",
    "country": "CA",
    "name": "Rivers Inlet Seaplane Base"
  },
  "YTG": {
    "lat": 50.885359,
    "lon": -126.831069,
    "city": "Sullivan Bay",
    "country": "CA",
    "name": "Sullivan Bay Seaplane Base"
  },
  "YMU": {
    "lat": 50.07137,
    "lon": -124.98362,
    "city": "Mansons Landing",
    "country": "CA",
    "name": "Mansons Landing Seaplane Base"
  },
  "YAV": {
    "lat": 48.852241,
    "lon": -123.301982,
    "city": "Miners Bay",
    "country": "CA",
    "name": "Mayne Island Seaplane Base"
  },
  "YSX": {
    "lat": 52.150002,
    "lon": -128.08299,
    "city": "Bella Bella",
    "country": "CA",
    "name": "Bella Bella/Shearwater Seaplane Base"
  },
  "YGG": {
    "lat": 48.8545,
    "lon": -123.4969,
    "city": "Salt Spring Island",
    "country": "CA",
    "name": "Ganges Seaplane Base"
  },
  "YTB": {
    "lat": 53.416698,
    "lon": -129.25,
    "city": "Hartley Bay",
    "country": "CA",
    "name": "Hartley Bay Seaplane Base"
  },
  "YZA": {
    "lat": 50.775258,
    "lon": -121.321314,
    "city": "Cache Creek",
    "country": "CA",
    "name": "Cache Creek-Ashcroft Regional Airport"
  },
  "ZEL": {
    "lat": 52.185001,
    "lon": -128.156994,
    "city": "Bella Bella",
    "country": "CA",
    "name": "Bella Bella (Campbell Island) Airport"
  },
  "CBC": {
    "lat": -18.917777777800005,
    "lon": 125.537777778,
    "city": "",
    "country": "AU",
    "name": "Cherrabun Airport"
  },
  "YPB": {
    "lat": 49.321899,
    "lon": -124.931,
    "city": "Port Alberni",
    "country": "CA",
    "name": "Alberni Valley Regional Airport"
  },
  "YBO": {
    "lat": 56.966702,
    "lon": -130.25,
    "city": "Bob Quinn Lake",
    "country": "CA",
    "name": "Bob Quinn Lake Airport"
  },
  "TNS": {
    "lat": 61.956901550293,
    "lon": -128.20300292969,
    "city": "Tungsten",
    "country": "CA",
    "name": "Tungsten (Cantung) Airport"
  },
  "TUX": {
    "lat": 55.025001525879,
    "lon": -120.93499755859,
    "city": "Tumbler Ridge",
    "country": "CA",
    "name": "Tumbler Ridge Airport"
  },
  "YWM": {
    "lat": 52.567377,
    "lon": -55.784883,
    "city": "Williams Harbour",
    "country": "CA",
    "name": "Williams Harbour Airport"
  },
  "YSO": {
    "lat": 54.9105,
    "lon": -59.78507,
    "city": "Postville",
    "country": "CA",
    "name": "Postville Airport"
  },
  "YBI": {
    "lat": 53.469836,
    "lon": -55.787501,
    "city": "Black Tickle",
    "country": "CA",
    "name": "Black Tickle Airport"
  },
  "YHG": {
    "lat": 52.765774,
    "lon": -56.11237,
    "city": "Charlottetown",
    "country": "CA",
    "name": "Charlottetown Airport"
  },
  "YFX": {
    "lat": 52.372799,
    "lon": -55.673901,
    "city": "St. Lewis",
    "country": "CA",
    "name": "St. Lewis (Fox Harbour) Airport"
  },
  "YHA": {
    "lat": 52.528099060058594,
    "lon": -56.28609848022461,
    "city": "Port Hope Simpson",
    "country": "CA",
    "name": "Port Hope Simpson Airport"
  },
  "YRG": {
    "lat": 54.1796989440918,
    "lon": -58.45750045776367,
    "city": "Rigolet",
    "country": "CA",
    "name": "Rigolet Airport"
  },
  "KGN": {
    "lat": -6.468027,
    "lon": 16.805012,
    "city": "Kasongo-Lunda",
    "country": "CD",
    "name": "Kasongo-Lunda Airport"
  },
  "DVK": {
    "lat": 64.5113983154,
    "lon": -110.289001465,
    "city": "Diavik",
    "country": "CA",
    "name": "Diavik Airport"
  },
  "JOJ": {
    "lat": 68.1252746582,
    "lon": -106.585281372,
    "city": "Hope Bay",
    "country": "CA",
    "name": "Doris Lake"
  },
  "ZFW": {
    "lat": 56.081401825,
    "lon": -118.434997559,
    "city": "Fairview",
    "country": "CA",
    "name": "Fairview Airport"
  },
  "YJP": {
    "lat": 53.319199,
    "lon": -117.752998,
    "city": "Hinton",
    "country": "CA",
    "name": "Jasper-Hinton Airport"
  },
  "YLE": {
    "lat": 63.13169860839844,
    "lon": -117.24600219726562,
    "city": "Whatì",
    "country": "CA",
    "name": "Whatì Airport"
  },
  "YDC": {
    "lat": 53.265800476074,
    "lon": -114.95999908447,
    "city": "Drayton Valley",
    "country": "CA",
    "name": "Drayton Valley Industrial Airport"
  },
  "NML": {
    "lat": 57.0555992126,
    "lon": -111.573997498,
    "city": "Fort McMurray",
    "country": "CA",
    "name": "Fort McMurray / Mildred Lake Airport"
  },
  "CFM": {
    "lat": 55.695301,
    "lon": -111.278999,
    "city": "Conklin",
    "country": "CA",
    "name": "Conklin (Leismer) Airport"
  },
  "KWD": {
    "lat": 7.964938,
    "lon": 23.526018,
    "city": "Kavadja",
    "country": "CF",
    "name": "Kavadja Airport"
  },
  "GSL": {
    "lat": 62.5980987549,
    "lon": -111.542999268,
    "city": "Taltheilei Narrows",
    "country": "CA",
    "name": "Taltheilei Narrows Airport"
  },
  "XMP": {
    "lat": 63.181098938,
    "lon": -130.20199585,
    "city": "Macmillan Pass",
    "country": "CA",
    "name": "Macmillan Pass Airport"
  },
  "DAS": {
    "lat": 66.703053,
    "lon": -119.716816,
    "city": "Great Bear Lake",
    "country": "CA",
    "name": "Great Bear Lake Airport"
  },
  "YFI": {
    "lat": 57.275833,
    "lon": -110.976666,
    "city": "Suncor Energy Site",
    "country": "CA",
    "name": "Fort Mackay / Firebag"
  },
  "YOE": {
    "lat": 55.7094,
    "lon": -117.094002,
    "city": "Donnelly",
    "country": "CA",
    "name": "Donnelly Airport"
  },
  "TIL": {
    "lat": 51.057498931885,
    "lon": -113.62400054932,
    "city": "Cheadle",
    "country": "CA",
    "name": "Cheadle Airport"
  },
  "OKG": {
    "lat": -1.4483300447464,
    "lon": 15.073300361633,
    "city": "Okoyo",
    "country": "CG",
    "name": "Okoyo Airport"
  },
  "CGA": {
    "lat": 55.478802,
    "lon": -133.147995,
    "city": "Craig",
    "country": "US",
    "name": "Craig Seaplane Base"
  },
  "CGG": {
    "lat": 16.1941,
    "lon": 122.0651,
    "city": "Casiguran",
    "country": "PH",
    "name": "Casiguran Airport"
  },
  "GHK": {
    "lat": 63.435198,
    "lon": -109.144812,
    "city": "Kennedy Lake",
    "country": "CA",
    "name": "Gahcho Kue"
  },
  "CHP": {
    "lat": 65.485496521,
    "lon": -144.610992432,
    "city": "Circle Hot Springs",
    "country": "US",
    "name": "Circle Hot Springs Airport"
  },
  "CIV": {
    "lat": 55.217,
    "lon": -132.21,
    "city": "Chomley",
    "country": "US",
    "name": "Chomley Seaplane Base"
  },
  "LRQ": {
    "lat": 56.2486000061,
    "lon": -101.304000854,
    "city": "Laurie River",
    "country": "CA",
    "name": "Laurie River Airport"
  },
  "YDJ": {
    "lat": 58.662498474121,
    "lon": -103.53800201416,
    "city": "Hatchet Lake",
    "country": "CA",
    "name": "Hatchet Lake Airport"
  },
  "YDU": {
    "lat": 60.291900634766,
    "lon": -102.50199890137,
    "city": "Kasba Lake",
    "country": "CA",
    "name": "Kasba Lake Airport"
  },
  "YFL": {
    "lat": 62.7,
    "lon": -109.167,
    "city": "Fort Reliance",
    "country": "CA",
    "name": "Fort Reliance Seaplane Base"
  },
  "XCL": {
    "lat": 58.3911018372,
    "lon": -109.51599884,
    "city": "Cluff Lake",
    "country": "CA",
    "name": "Cluff Lake Airport"
  },
  "YKE": {
    "lat": 54.915298,
    "lon": -94.798103,
    "city": "Knee Lake",
    "country": "CA",
    "name": "Knee Lake Airport"
  },
  "SUR": {
    "lat": 52.70859909057617,
    "lon": -88.54190063476562,
    "city": "Summer Beaver",
    "country": "CA",
    "name": "Summer Beaver Airport"
  },
  "CKD": {
    "lat": 61.870315,
    "lon": -158.137636,
    "city": "Crooked Creek",
    "country": "US",
    "name": "Crooked Creek Airport"
  },
  "YTT": {
    "lat": 52.836700439453,
    "lon": -104.06700134277,
    "city": "Tisdale",
    "country": "CA",
    "name": "Tisdale Airport"
  },
  "YAX": {
    "lat": 53.84920120239258,
    "lon": -89.57939910888672,
    "city": "Angling Lake",
    "country": "CA",
    "name": "Wapekeka Airport"
  },
  "WNN": {
    "lat": 52.893902,
    "lon": -89.2892,
    "city": "Wunnumin Lake",
    "country": "CA",
    "name": "Wunnumin Lake Airport"
  },
  "YBS": {
    "lat": 52.6067008972,
    "lon": -90.3768997192,
    "city": "Opapimiskan Lake",
    "country": "CA",
    "name": "Opapimiskan Lake Airport"
  },
  "YNO": {
    "lat": 52.4900016784668,
    "lon": -92.97109985351562,
    "city": "North Spirit Lake",
    "country": "CA",
    "name": "North Spirit Lake Airport"
  },
  "CKR": {
    "lat": 48.5978,
    "lon": -122.9979,
    "city": "Crane Island",
    "country": "US",
    "name": "Crane Island Airstrip"
  },
  "CKU": {
    "lat": 60.5438995361,
    "lon": -145.727005005,
    "city": "Cordova",
    "country": "US",
    "name": "Cordova Municipal Airport"
  },
  "YDW": {
    "lat": 60.315719,
    "lon": -103.131324,
    "city": "Obre Lake",
    "country": "CA",
    "name": "North of Sixty Airport"
  },
  "CKX": {
    "lat": 64.066495,
    "lon": -141.951342,
    "city": "Chicken",
    "country": "US",
    "name": "Chicken Airport"
  },
  "CMT": {
    "lat": -2.2468,
    "lon": -49.56,
    "city": "Cametá",
    "country": "BR",
    "name": "New Cametá Airport"
  },
  "CMZ": {
    "lat": -17.8331,
    "lon": 35.3341,
    "city": "Caia",
    "country": "MZ",
    "name": "Caia Airport"
  },
  "ZKL": {
    "lat": 29.376484,
    "lon": 104.625789,
    "city": "Zigong (Gongjing)",
    "country": "CN",
    "name": "Zigong Fengming Airport"
  },
  "BZX": {
    "lat": 31.73842,
    "lon": 106.644872,
    "city": "Bazhong (Enyang)",
    "country": "CN",
    "name": "Bazhong Enyang Airport"
  },
  "DFA": {
    "lat": 33.708533,
    "lon": 110.249284,
    "city": "Shangluo (Danfeng)",
    "country": "CN",
    "name": "Shangluo Airport"
  },
  "HSC": {
    "lat": 24.9786,
    "lon": 113.420998,
    "city": "Shaoguan",
    "country": "CN",
    "name": "Shaoguan Danxia Airport"
  },